,Unnamed: 0.1,Unnamed: 0,geometry,address,latitude,longitude
0,0,0,POINT (144.6867955 -37.8725625),"Durham Crescent, Mossfiel, Hoppers Crossing, Melbourne, City of Wyndham, Victoria, 3029, Australia",-37.8725625,144.6867955
1,1,1,POINT (145.0294366 -37.7618963),"Mabel Street, Ivanhoe, Melbourne, City of Banyule, Victoria, 3078, Australia",-37.7618963,145.0294366
2,2,2,POINT (145.0356549 -37.7647315),"Green Street, Ivanhoe, Melbourne, City of Banyule, Victoria, 3079, Australia",-37.7647315,145.0356549
3,3,3,POINT (145.0450926536774 -37.7676783),"15, Ivanhoe Parade, Ivanhoe East, Melbourne, City of Banyule, Victoria, 3079, Australia",-37.7676783,145.0450926536774
4,4,4,POINT (145.0373638092353 -37.7140559),"63, Dunne Street, Kingsbury, Melbourne, City of Darebin, Victoria, 3086, Australia",-37.7140559,145.0373638092353
5,5,5,POINT (145.0139611 -37.6640187),"Tandarra Crescent, Lalor, Melbourne, City of Whittlesea, Victoria, 3075, Australia",-37.6640187,145.0139611
6,6,6,POINT (145.2084568 -38.1439109),"Julie Court, Langwarrin, Melbourne, City of Frankston, Victoria, 3910, Australia",-38.1439109,145.2084568
7,7,7,POINT (145.0350359 -37.867502),"Johnstone Street, Malvern, Melbourne, City of Stonnington, Victoria, 3144, Australia",-37.867502,145.0350359
8,8,8,POINT (145.1430832 -38.1446007),"Campbell Street, Frankston, Melbourne, City of Frankston, Victoria, 3199, Australia",-38.1446007,145.1430832
9,9,9,POINT (144.9035822 -38.4593041),"Boneo Road, Boneo, Cape Schanck, Melbourne, Shire of Mornington Peninsula, Victoria, 3940, Australia",-38.4593041,144.9035822
10,10,10,POINT (144.9799798 -37.83751),"Toorak Road, South Yarra, Melbourne, City of Melbourne, Victoria, 3141, Australia",-37.83751,144.9799798
11,11,11,POINT (145.2151626 -37.9741505),"Godfrey Crescent, Dandenong, Melbourne, City of Greater Dandenong, Victoria, 3802, Australia",-37.9741505,145.2151626
12,12,12,POINT (144.9543669 -37.8214085),"Flinders Street, Yarra’s Edge, Docklands, Melbourne, City of Melbourne, Victoria, 3008, Australia",-37.8214085,144.9543669
13,13,13,POINT (144.9543669 -37.8214085),"Flinders Street, Yarra’s Edge, Docklands, Melbourne, City of Melbourne, Victoria, 3008, Australia",-37.8214085,144.9543669
14,14,14,POINT (144.94118200840478 -37.823461550000005),"Yarra Point, 1-13, Point Park Crescent, Yarra’s Edge, Docklands, Melbourne, City of Melbourne, Victoria, 3008, Australia",-37.823461550000005,144.94118200840478
15,15,15,POINT (144.9543669 -37.8214085),"Flinders Street, Yarra’s Edge, Docklands, Melbourne, City of Melbourne, Victoria, 3008, Australia",-37.8214085,144.9543669
16,16,16,POINT (144.9435771 -37.8132055),"Harbour Esplanade, Docklands, Melbourne, City of Melbourne, Victoria, 3008, Australia",-37.8132055,144.9435771
17,17,17,POINT (144.9524323 -37.8226764),"60, Siddeley Street, Yarra’s Edge, Docklands, Melbourne, City of Melbourne, Victoria, 3008, Australia",-37.8226764,144.9524323
18,18,18,POINT (144.9471193241901 -37.818273399999995),"Victoria Point, 100, Harbour Esplanade, Yarra’s Edge, Docklands, Melbourne, City of Melbourne, Victoria, 3008, Australia",-37.818273399999995,144.9471193241901
19,19,19,POINT (144.9543669 -37.8214085),"Flinders Street, Yarra’s Edge, Docklands, Melbourne, City of Melbourne, Victoria, 3008, Australia",-37.8214085,144.9543669
20,20,20,POINT (145.1175206 -37.6041653),"Resort Boulevard, Plenty River Estate, Doreen, Melbourne, City of Whittlesea, Victoria, 3754, Australia",-37.6041653,145.1175206
21,21,21,POINT (145.137274 -37.7175589),"198, Sherbourne Road, Montmorency, Melbourne, City of Banyule, Victoria, 3094, Australia",-37.7175589,145.137274
22,22,22,POINT (144.8933596 -37.7451927),"Ogilvie Street, Essendon, Melbourne, City of Moonee Valley, Victoria, 3040, Australia",-37.7451927,144.8933596
23,23,23,POINT (144.9096718 -37.7993936),"6, Joseph Road, Footscray, Melbourne, City of Maribyrnong, Victoria, 3011, Australia",-37.7993936,144.9096718
24,24,24,POINT (145.1299002 -37.9183617),"Panorama Street, Clayton, Melbourne, City of Monash, Victoria, 3800, Australia",-37.9183617,145.1299002
25,26,26,POINT (144.94186226006886 -37.821186499999996),"889 Collins Street, Collins Street, Victoria Harbour, Docklands, Melbourne, City of Melbourne, Victoria, 3008, Australia",-37.821186499999996,144.94186226006886
26,27,27,POINT (144.9435771 -37.8132055),"Harbour Esplanade, Docklands, Melbourne, City of Melbourne, Victoria, 3008, Australia",-37.8132055,144.9435771
27,28,28,POINT (144.9823241 -37.8732588),"Dickens Street, Elwood, Melbourne, City of Port Phillip, Victoria, 3182, Australia",-37.8732588,144.9823241
28,29,29,POINT (144.8938795 -37.7489978),"Bradshaw Street, Essendon, Melbourne, City of Moonee Valley, Victoria, 3040, Australia",-37.7489978,144.8938795
29,30,30,POINT (144.9195606 -37.7458503),"Morton Street, Essendon, Melbourne, City of Moonee Valley, Victoria, 3040, Australia",-37.7458503,144.9195606
30,32,32,POINT (145.1236463 -38.1565484),"Bayview Road, Frankston, Melbourne, City of Frankston, Victoria, 3199, Australia",-38.1565484,145.1236463
31,33,33,POINT (145.0405781 -37.7728723),"Heidelberg Road, Ivanhoe, Melbourne, City of Banyule, Victoria, 3079, Australia",-37.7728723,145.0405781
32,34,34,POINT (144.9246049594702 -37.78961535),"19, Weighbridge Lane, Kensington, Melbourne, City of Melbourne, Victoria, 3031, Australia",-37.78961535,144.9246049594702
33,35,35,POINT (144.7505388 -37.751316),"Roycroft Avenue, Burnside, Melbourne, City of Melton, Victoria, 3023, Australia",-37.751316,144.7505388
34,36,36,POINT (145.1270101 -37.9251284),"29, Browns Road, Clayton, Melbourne, City of Monash, Victoria, 3800, Australia",-37.9251284,145.1270101
35,37,37,POINT (145.1234947 -37.9184385),"Murray Street, Clayton, Melbourne, City of Monash, Victoria, 3800, Australia",-37.9184385,145.1234947
36,38,38,POINT (145.1105519 -37.9239051),"12A, McBean Street, Clayton, Melbourne, City of Monash, Victoria, 3169, Australia",-37.9239051,145.1105519
37,39,39,POINT (144.91731736410634 -37.70450915),"Glenroy, Dowd Place, Glenroy, Melbourne, City of Merri-bek, Victoria, 3046, Australia",-37.70450915,144.91731736410634
38,40,40,POINT (144.7665187 -37.8665045),"6, Bruce Street, Laverton, Melbourne, City of Hobsons Bay, Victoria, 3028, Australia",-37.8665045,144.7665187
39,41,41,POINT (144.5696647 -37.6887521),"Kinloch Road, Melton, Melbourne, City of Melton, Victoria, 3337, Australia",-37.6887521,144.5696647
40,42,42,POINT (144.956776 -37.8026602),"O'Connell Street, North Melbourne, Melbourne, City of Melbourne, Victoria, 3050, Australia",-37.8026602,144.956776
41,43,43,POINT (144.95383213603466 -37.79960405),"3-11, High Street, North Melbourne, Melbourne, City of Melbourne, Victoria, 3050, Australia",-37.79960405,144.95383213603466
42,44,44,POINT (144.9925536 -37.7743699),"Aberdeen Grove, Ruckers Hill, Northcote, Melbourne, City of Darebin, Victoria, 3070, Australia",-37.7743699,144.9925536
43,45,45,POINT (144.9308469 -37.7195853),"Quick Street, Pascoe Vale, Melbourne, City of Merri-bek, Victoria, 3044, Australia",-37.7195853,144.9308469
44,46,46,POINT (145.0042370353139 -37.7386886),"90, Roseberry Avenue, Preston, Melbourne, City of Darebin, Victoria, 3072, Australia",-37.7386886,145.0042370353139
45,47,47,POINT (144.9855005 -37.7280871),"Furzer Street, Preston, Coburg North, Melbourne, City of Darebin, Victoria, 3072, Australia",-37.7280871,144.9855005
46,48,48,POINT (145.0029235 -37.7115111),"Barton Street, Reservoir, Melbourne, City of Darebin, Victoria, 3073, Australia",-37.7115111,145.0029235
47,49,49,POINT (145.0045671 -37.7127543),"Leamington Street, Reservoir, Melbourne, City of Darebin, Victoria, 3073, Australia",-37.7127543,145.0045671
48,51,51,POINT (145.0545296 -37.7049398),"Plenty Road, Bundoora, Melbourne, City of Darebin, Victoria, 3083, Australia",-37.7049398,145.0545296
49,52,52,POINT (145.061061 -37.8901244),"Tranmere Avenue, Carnegie, Melbourne, City of Glen Eira, Victoria, 3163, Australia",-37.8901244,145.061061
50,53,53,POINT (145.0545986 -37.8851298),"Rosstown Road, Carnegie, Melbourne, City of Glen Eira, Victoria, 3145, Australia",-37.8851298,145.0545986
51,54,54,POINT (145.0101623 -37.8921526),"Clarence Street, Elsternwick, Melbourne, City of Glen Eira, Victoria, 3185, Australia",-37.8921526,145.0101623
52,55,55,POINT (145.0073583 -37.8856591),"Downshire Road, Elsternwick, Melbourne, City of Glen Eira, Victoria, 3185, Australia",-37.8856591,145.0073583
53,56,56,POINT (144.92412467376238 -37.7833612),"57, Dover Street, Newmarket, Flemington, Melbourne, City of Moonee Valley, Victoria, 3031, Australia",-37.7833612,144.92412467376238
54,57,57,POINT (145.14098492017345 -38.1587557),"37, Heatherhill Road, Frankston, Melbourne, City of Frankston, Victoria, 3199, Australia",-38.1587557,145.14098492017345
55,58,58,POINT (144.9394072 -37.7009546),"West Street, Glenroy, Melbourne, City of Merri-bek, Victoria, 3046, Australia",-37.7009546,144.9394072
56,59,59,POINT (145.0965322 -37.706903),"Vermont Parade, Greensborough, Melbourne, City of Banyule, Victoria, 3088, Australia",-37.706903,145.0965322
57,60,60,POINT (145.2534951 -38.0035433),"Kays Avenue, Hallam, Melbourne, City of Casey, Victoria, 3803, Australia",-38.0035433,145.2534951
58,61,61,POINT (144.7773286 -37.8484045),"Robertson Crescent, Laverton, Melbourne, City of Hobsons Bay, Victoria, 3028, Australia",-37.8484045,144.7773286
59,62,62,POINT (145.1460805 -37.9010149),"Hampshire Road, Glen Waverley, Melbourne, City of Monash, Victoria, 3168, Australia",-37.9010149,145.1460805
60,63,63,POINT (145.2787051 -38.0083481),"Fitzgerald Road, Hallam, Melbourne, City of Casey, Victoria, 3803, Australia",-38.0083481,145.2787051
61,64,64,POINT (144.7398349 -37.6862844),"Wattle Valley Drive, Bellevue Hill, Hillside, Melbourne, City of Melton, Victoria, 3037, Australia",-37.6862844,144.7398349
62,65,65,POINT (144.7465818 -37.6851926),"Melfin Drive, Banchory Grove, Hillside, Melbourne, City of Melton, Victoria, 3037, Australia",-37.6851926,144.7465818
63,66,66,POINT (144.6710758 -37.8543766),"Toulouse Crescent, Deloraine, Hoppers Crossing, Melbourne, City of Wyndham, Victoria, 3029, Australia",-37.8543766,144.6710758
64,67,67,POINT (145.0469764 -37.758512),"St Elmo Road, Ivanhoe, Melbourne, City of Banyule, Victoria, 3079, Australia",-37.758512,145.0469764
65,68,68,POINT (145.04746353392784 -37.77000765),"88, Marshall Street, Ivanhoe, Melbourne, City of Banyule, Victoria, 3079, Australia",-37.77000765,145.04746353392784
66,69,69,POINT (144.92822978225547 -37.79767),"80, Ormond Street, Kensington, Melbourne, City of Melbourne, Victoria, 3031, Australia",-37.79767,144.92822978225547
67,70,70,POINT (144.9160282529469 -37.79397805),"The Vue Apartments, 70, Speakmen Street, Kensington, Melbourne, City of Melbourne, Victoria, 3031, Australia",-37.79397805,144.9160282529469
68,71,71,POINT (145.1730815 -37.9874335),"Bundeena Avenue, Keysborough, Melbourne, City of Greater Dandenong, Victoria, 3173, Australia",-37.9874335,145.1730815
69,72,72,POINT (145.1827552 -37.9874145),"4, Somerset Drive, Keysborough, Melbourne, City of Greater Dandenong, Victoria, 3173, Australia",-37.9874145,145.1827552
70,73,73,POINT (145.0289612 -37.6676693),"Louise Street, Lalor, Melbourne, City of Whittlesea, Victoria, 3075, Australia",-37.6676693,145.0289612
71,74,74,POINT (145.029248 -37.870004),"Malvern Grove, Caulfield North, Melbourne, City of Glen Eira, Victoria, 3144, Australia",-37.870004,145.029248
72,75,75,POINT (144.9705945 -38.3299025),"Point Nepean Road, Dromana, Melbourne, Shire of Mornington Peninsula, Victoria, 3936, Australia",-38.3299025,144.9705945
73,76,76,POINT (144.9297263 -37.7833877),"Lee Street, Newmarket, Flemington, Melbourne, City of Moonee Valley, Victoria, 3031, Australia",-37.7833877,144.9297263
74,77,77,POINT (144.9264007370753 -37.7953234),"8, Derby Street, Kensington, Melbourne, City of Melbourne, Victoria, 3031, Australia",-37.7953234,144.9264007370753
75,78,78,POINT (145.1881099 -37.9335586),"Hansworth Street, Mulgrave, Melbourne, City of Monash, Victoria, 3170, Australia",-37.9335586,145.1881099
76,79,79,POINT (144.9399609 -37.795578),"Canning Street, North Melbourne, Melbourne, City of Melbourne, Victoria, 3051, Australia",-37.795578,144.9399609
77,80,80,POINT (144.9152603 -37.7208324),"Winifred Street, Oak Park, Melbourne, City of Merri-bek, Victoria, 3046, Australia",-37.7208324,144.9152603
78,81,81,POINT (144.9152584 -37.7228448),"Gregory Street, Oak Park, Melbourne, City of Merri-bek, Victoria, 3046, Australia",-37.7228448,144.9152584
79,83,83,POINT (144.933099 -37.6878621),"Gerbert Street, Broadmeadows, Melbourne, City of Hume, Victoria, 3047, Australia",-37.6878621,144.933099
80,84,84,POINT (144.9226318 -37.6885487),"Walsh Street, Broadmeadows, Melbourne, City of Hume, Victoria, 3047, Australia",-37.6885487,144.9226318
81,85,85,POINT (144.9226318 -37.6885487),"Walsh Street, Broadmeadows, Melbourne, City of Hume, Victoria, 3047, Australia",-37.6885487,144.9226318
82,86,86,POINT (145.0584603 -37.6973744),"21–35, Plenty Road, Bundoora, Melbourne, City of Whittlesea, Victoria, 3083, Australia",-37.6973744,145.0584603
83,87,87,POINT (144.7555433 -37.735225),"Leichhardt Avenue, Tenterfield, Burnside Heights, Melbourne, City of Melton, Victoria, 3023, Australia",-37.735225,144.7555433
84,88,88,POINT (144.740307 -37.7255847),"Studley Park Way, Caroline Springs, Melbourne, City of Melton, Victoria, 3336, Australia",-37.7255847,144.740307
85,89,89,POINT (145.3461027 -38.1223955),"Yaralla Circuit, Edgebrook, Clyde, Melbourne, City of Casey, Victoria, 3978, Australia",-38.1223955,145.3461027
86,90,90,POINT (144.9850742 -37.8021834),"Stanley Street, Collingwood, Melbourne, City of Yarra, Victoria, 3066, Australia",-37.8021834,144.9850742
87,91,91,POINT (145.0672739 -37.8847223),"Dandenong Road, Carnegie, Melbourne, City of Glen Eira, Victoria, 3163, Australia",-37.8847223,145.0672739
88,92,92,POINT (144.7388933 -37.7237865),"Kai Close, Caroline Springs, Melbourne, City of Melton, Victoria, 3336, Australia",-37.7237865,144.7388933
89,93,93,POINT (145.1607891 -38.1112699),"Turnstone Court, Carrum Downs, Melbourne, City of Frankston, Victoria, 3201, Australia",-38.1112699,145.1607891
90,94,94,POINT (145.0217836 -37.8547959),"Baldwin Street, Armadale, Melbourne, City of Stonnington, Victoria, 3143, Australia",-37.8547959,145.0217836
91,95,95,POINT (144.9865052 -37.8066362),"Langridge Street, Collingwood, Melbourne, City of Yarra, Victoria, 3066, Australia",-37.8066362,144.9865052
92,96,96,POINT (144.9801865 -37.7954819),"Leicester Street, Fitzroy, Melbourne, City of Yarra, Victoria, 3065, Australia",-37.7954819,144.9801865
93,97,97,POINT (145.0130906 -37.7236149),"Storey Road, Reservoir, Melbourne, City of Darebin, Victoria, 3073, Australia",-37.7236149,145.0130906
94,98,98,POINT (144.9883259 -37.8399962),"Macfarlan Street, South Yarra, Melbourne, City of Stonnington, Victoria, 3141, Australia",-37.8399962,144.9883259
95,99,99,POINT (144.9651469 -37.822342),"81, City Road, Southbank, Melbourne, City of Melbourne, Victoria, 3006, Australia",-37.822342,144.9651469
96,100,100,POINT (144.8887941 -37.8159456),"Canterbury Street, Yarraville, Melbourne, City of Maribyrnong, Victoria, 3013, Australia",-37.8159456,144.8887941
97,102,102,POINT (144.9439317 -37.8369576),"Bridge Street, Port Melbourne, Melbourne, City of Port Phillip, Victoria, 3207, Australia",-37.8369576,144.9439317
98,103,103,POINT (144.94737762724435 -37.83239685),"206, Heath Street, Port Melbourne, Melbourne, City of Port Phillip, Victoria, 3207, Australia",-37.83239685,144.94737762724435
99,104,104,POINT (144.93416414170176 -37.837022649999994),"16, Byrne Street, Beacon Cove, Port Melbourne, Melbourne, City of Port Phillip, Victoria, 3207, Australia",-37.837022649999994,144.93416414170176
100,105,105,POINT (144.938633 -37.8425339),"Bay Street, Beacon Cove, Port Melbourne, Melbourne, City of Port Phillip, Victoria, 3207, Australia",-37.8425339,144.938633
101,106,106,POINT (145.0138954 -37.7462477),"Bell Street, Preston, Melbourne, City of Darebin, Victoria, 3072, Australia",-37.7462477,145.0138954
102,107,107,POINT (144.9952197 -37.734417),"Graham Court, Preston, Melbourne, City of Darebin, Victoria, 3072, Australia",-37.734417,144.9952197
103,108,108,POINT (145.0127545 -37.7137554),"Royal Parade, Reservoir, Melbourne, City of Darebin, Victoria, 3073, Australia",-37.7137554,145.0127545
104,109,109,POINT (145.0271923 -37.7300627),"Drysdale Street, Reservoir, Melbourne, City of Darebin, Victoria, 3073, Australia",-37.7300627,145.0271923
105,110,110,POINT (145.0232899111111 -37.70146827777778),"3, Dumbarton Street, Reservoir, Melbourne, City of Darebin, Victoria, 3073, Australia",-37.70146827777778,145.0232899111111
106,111,111,POINT (145.0002779 -37.8118955),"Elizabeth Street, Richmond Housing Estate, Richmond, Melbourne, City of Yarra, Victoria, 3121, Australia",-37.8118955,145.0002779
107,112,112,POINT (145.013165 -37.8120338),"River Boulevard, Richmond, Melbourne, City of Yarra, Victoria, 3121, Australia",-37.8120338,145.013165
108,113,113,POINT (145.0065533 -37.8247695),"Newry Street, Richmond, Melbourne, City of Yarra, Victoria, 3121, Australia",-37.8247695,145.0065533
109,114,114,POINT (144.9908285 -37.8143334),"129, Hoddle Street, Richmond, Melbourne, City of Yarra, Victoria, 3121, Australia",-37.8143334,144.9908285
110,115,115,POINT (145.0138381 -37.8125891),"Elaine Court, Richmond, Melbourne, City of Yarra, Victoria, 3121, Australia",-37.8125891,145.0138381
111,116,116,POINT (144.96460395433735 -37.82170615),"Eureka Tower, 7, Riverside Quay, Southbank, Melbourne, City of Melbourne, Victoria, 3006, Australia",-37.82170615,144.96460395433735
112,117,117,POINT (144.96460395433735 -37.82170615),"Eureka Tower, 7, Riverside Quay, Southbank, Melbourne, City of Melbourne, Victoria, 3006, Australia",-37.82170615,144.96460395433735
113,118,118,POINT (144.9602667 -37.8255566),"Queens Bridge Street, Southbank, Melbourne, City of Melbourne, Victoria, 3006, Australia",-37.8255566,144.9602667
114,119,119,POINT (144.96165600047658 -37.825163950000004),"Southbank Central, 1, Balston Street, Southbank, Melbourne, City of Melbourne, Victoria, 3006, Australia",-37.825163950000004,144.96165600047658
115,120,120,POINT (144.9633593 -37.8229812),"City Road, Southbank, Melbourne, City of Melbourne, Victoria, 3006, Australia",-37.8229812,144.9633593
116,121,121,POINT (144.9594693379729 -37.82694215),"Experience Platinum Hotel Apartments, 45, Clarke Street, Southbank, Melbourne, City of Melbourne, Victoria, 3205, Australia",-37.82694215,144.9594693379729
117,122,122,POINT (144.8961781 -37.8116097),"Berry Street, Yarraville, Melbourne, City of Maribyrnong, Victoria, 3013, Australia",-37.8116097,144.8961781
118,123,123,POINT (144.9912477 -37.8048193),"Islington Street, Collingwood, Melbourne, City of Yarra, Victoria, 3067, Australia",-37.8048193,144.9912477
119,124,124,POINT (144.8670835 -37.8369842),"Gordon Street, Newport, Melbourne, City of Hobsons Bay, Victoria, 3015, Australia",-37.8369842,144.8670835
120,125,125,POINT (145.0076676 -37.7725876),"Glanfield Street, Northcote, Melbourne, City of Darebin, Victoria, 3070, Australia",-37.7725876,145.0076676
121,126,126,POINT (144.9651469 -37.822342),"81, City Road, Southbank, Melbourne, City of Melbourne, Victoria, 3006, Australia",-37.822342,144.9651469
122,127,127,POINT (144.93412295000002 -37.83560085),"74, Clark Street, Beacon Cove, Port Melbourne, Melbourne, City of Port Phillip, Victoria, 3207, Australia",-37.83560085,144.93412295000002
123,128,128,POINT (145.0052595 -37.8188114),"Gardner Street, Richmond, Melbourne, City of Yarra, Victoria, 3121, Australia",-37.8188114,145.0052595
124,129,129,POINT (144.9934037 -37.8432752),"Medley Place, South Yarra, Melbourne, City of Stonnington, Victoria, 3141, Australia",-37.8432752,144.9934037
125,130,130,POINT (144.9903119 -37.8701005),"The Hamptons Apartment, 154, Chapel Street, St Kilda, Melbourne, City of Port Phillip, Victoria, 3182, Australia",-37.8701005,144.9903119
126,131,131,POINT (144.9967147 -37.8406737),"Cunningham Street, South Yarra, Melbourne, City of Stonnington, Victoria, 3141, Australia",-37.8406737,144.9967147
127,132,132,POINT (144.95997799999998 -37.82646615),"241, City Road, Southbank, Melbourne, City of Melbourne, Victoria, 3006, Australia",-37.82646615,144.95997799999998
128,133,133,POINT (144.9651469 -37.822342),"81, City Road, Southbank, Melbourne, City of Melbourne, Victoria, 3006, Australia",-37.822342,144.9651469
129,134,134,POINT (144.96317 -37.8260731),"Bale Circuit, Southbank, Melbourne, City of Melbourne, Victoria, 3006, Australia",-37.8260731,144.96317
130,136,136,POINT (144.9805846 -37.8579627),"Fitzroy Street, St Kilda, Melbourne, City of Port Phillip, Victoria, 3182, Australia",-37.8579627,144.9805846
131,137,137,POINT (144.9789798 -37.8729281),"27, Wordsworth Street, St Kilda, Melbourne, City of Port Phillip, Victoria, 3182, Australia",-37.8729281,144.9789798
132,138,138,POINT (145.1880651 -37.9131585),"Grandview Road, Wheelers Hill, Melbourne, City of Monash, Victoria, 3170, Australia",-37.9131585,145.1880651
133,139,139,POINT (144.8848962 -37.8178279),"Powell Street, Yarraville, Melbourne, City of Maribyrnong, Victoria, 3013, Australia",-37.8178279,144.8848962
134,140,140,POINT (144.9990234 -37.818673),"Commonwealth Bank, 1/246, Church Street, Richmond, Melbourne, City of Yarra, Victoria, 3121, Australia",-37.818673,144.9990234
135,141,141,POINT (144.98275751486273 -37.87177005),"19, Herbert Street, St Kilda, Melbourne, City of Port Phillip, Victoria, 3182, Australia",-37.87177005,144.98275751486273
136,142,142,POINT (145.2051039 -38.152892),"The Glade, Langwarrin, Melbourne, City of Frankston, Victoria, 3910, Australia",-38.152892,145.2051039
137,143,143,POINT (144.8859994 -37.8497633),"John Liston Drive, Williamstown Junction Estate, Newport, Melbourne, City of Hobsons Bay, Victoria, 3015, Australia",-37.8497633,144.8859994
138,144,144,POINT (144.9895641 -37.7412338),"Bruce Street, Preston, Melbourne, City of Darebin, Victoria, 3072, Australia",-37.7412338,144.9895641
139,145,145,POINT (145.0118159 -37.8147977),"David Street, Richmond, Melbourne, City of Yarra, Victoria, 3121, Australia",-37.8147977,145.0118159
140,146,146,POINT (144.962019914163 -37.824912749999996),"City Tower, 183, City Road, Southbank, Melbourne, City of Melbourne, Victoria, 3006, Australia",-37.824912749999996,144.962019914163
141,147,147,POINT (144.96236794162414 -37.8246239),"Melbourne Tower, 173, City Road, Southbank, Melbourne, City of Melbourne, Victoria, 3006, Australia",-37.8246239,144.96236794162414
142,148,148,POINT (144.9771145136711 -37.81663625),"207-211, Wellington Parade South, East Melbourne, Melbourne, City of Melbourne, Victoria, 3002, Australia",-37.81663625,144.9771145136711
143,149,149,POINT (145.0099748 -37.8871933),"Victoria Street, Elsternwick, Melbourne, City of Glen Eira, Victoria, 3185, Australia",-37.8871933,145.0099748
144,150,150,POINT (145.0156848 -37.853456),"Mount Pleasant Grove, Armadale, Melbourne, City of Stonnington, Victoria, 3143, Australia",-37.853456,145.0156848
145,151,151,POINT (145.0190529 -37.8552822),"High Street, Armadale, Melbourne, City of Stonnington, Victoria, 3143, Australia",-37.8552822,145.0190529
146,153,153,POINT (145.0300282 -37.8811063),"Bambra Road, Caulfield, Melbourne, City of Glen Eira, Victoria, 3162, Australia",-37.8811063,145.0300282
147,154,154,POINT (144.9927476 -37.7969977),"Bendigo Street, Collingwood, Melbourne, City of Yarra, Victoria, 3067, Australia",-37.7969977,144.9927476
148,155,155,POINT (144.9633593 -37.8229812),"City Road, Southbank, Melbourne, City of Melbourne, Victoria, 3006, Australia",-37.8229812,144.9633593
149,156,156,POINT (144.9862261 -37.7991571),"Johnston Street, Collingwood, Melbourne, City of Yarra, Victoria, 3066, Australia",-37.7991571,144.9862261
150,157,157,POINT (144.93855521923078 -37.8371272),"57, Station Street, Beacon Cove, Port Melbourne, Melbourne, City of Port Phillip, Victoria, 3207, Australia",-37.8371272,144.93855521923078
151,158,158,POINT (145.0659043 -37.8902278),"Neerim Road, Carnegie, Melbourne, City of Glen Eira, Victoria, 3163, Australia",-37.8902278,145.0659043
152,159,159,POINT (144.9701251 -38.3323657),"Carrigg Street, Dromana, Melbourne, Shire of Mornington Peninsula, Victoria, 3936, Australia",-38.3323657,144.9701251
153,160,160,POINT (145.0060664 -37.8850998),"Orrong Road, Elsternwick, Melbourne, City of Glen Eira, Victoria, 3185, Australia",-37.8850998,145.0060664
154,161,161,POINT (145.1308736 -38.1036689),"McKenzie Street, Seaford, Melbourne, City of Frankston, Victoria, 3298, Australia",-38.1036689,145.1308736
155,162,162,POINT (144.9713427 -37.8341251),"The Kettle Black, 50, Albert Road, South Melbourne, Melbourne, City of Port Phillip, Victoria, 3205, Australia",-37.8341251,144.9713427
156,163,163,POINT (144.965258 -37.8310837),"Kings Way, South Melbourne, Melbourne, City of Port Phillip, Victoria, 3205, Australia",-37.8310837,144.965258
157,164,164,POINT (144.9938493 -37.8377585),"Claremont Street, South Yarra, Melbourne, City of Stonnington, Victoria, 3141, Australia",-37.8377585,144.9938493
158,165,165,POINT (144.9938493 -37.8377585),"Claremont Street, South Yarra, Melbourne, City of Stonnington, Victoria, 3141, Australia",-37.8377585,144.9938493
159,166,166,POINT (144.9931004 -37.8359474),"Yarra Street, South Yarra, Melbourne, City of Stonnington, Victoria, 3141, Australia",-37.8359474,144.9931004
160,167,167,POINT (144.9938493 -37.8377585),"Claremont Street, South Yarra, Melbourne, City of Stonnington, Victoria, 3141, Australia",-37.8377585,144.9938493
161,168,168,POINT (144.9977442 -37.8370507),"Malcolm Street, South Yarra, Melbourne, City of Stonnington, Victoria, 3141, Australia",-37.8370507,144.9977442
162,169,169,POINT (144.9953801 -37.8437538),"Wilson Street, South Yarra, Melbourne, City of Stonnington, Victoria, 3141, Australia",-37.8437538,144.9953801
163,170,170,POINT (144.9977442 -37.8370507),"Malcolm Street, South Yarra, Melbourne, City of Stonnington, Victoria, 3141, Australia",-37.8370507,144.9977442
164,171,171,POINT (144.9938493 -37.8377585),"Claremont Street, South Yarra, Melbourne, City of Stonnington, Victoria, 3141, Australia",-37.8377585,144.9938493
165,172,172,POINT (144.9986625 -37.8474753),"Malvern Road, South Yarra, Melbourne, City of Stonnington, Victoria, 3141, Australia",-37.8474753,144.9986625
166,173,173,POINT (144.9960362 -37.837399),"Chapel Street, South Yarra, Melbourne, City of Stonnington, Victoria, 3141, Australia",-37.837399,144.9960362
167,174,174,POINT (144.9913174 -37.8389465),"Toorak Road, South Yarra, Melbourne, City of Stonnington, Victoria, 3141, Australia",-37.8389465,144.9913174
168,175,175,POINT (144.9960362 -37.837399),"Chapel Street, South Yarra, Melbourne, City of Stonnington, Victoria, 3141, Australia",-37.837399,144.9960362
169,176,176,POINT (144.9652507 -37.8230438),"Kavanagh Street, Southbank, Melbourne, City of Melbourne, Victoria, 3006, Australia",-37.8230438,144.9652507
170,177,177,POINT (144.9627694 -37.7731983),"Dods Street, Brunswick, Melbourne, City of Merri-bek, Victoria, 3056, Australia",-37.7731983,144.9627694
171,178,178,POINT (145.1148315 -37.9225156),"Prince Charles Street, Clayton, Melbourne, City of Monash, Victoria, 3169, Australia",-37.9225156,145.1148315
172,179,179,POINT (144.9277568 -37.8210476),"Lorimer Street, Docklands, Melbourne, City of Melbourne, Victoria, 3008, Australia",-37.8210476,144.9277568
173,180,180,POINT (144.9403317 -37.8138849),"Rakaia Way, NewQuay, Docklands, Melbourne, City of Melbourne, Victoria, 3008, Australia",-37.8138849,144.9403317
174,181,181,POINT (144.9879791 -37.8731861),"Wimbledon Avenue, Elwood, Melbourne, City of Port Phillip, Victoria, 3183, Australia",-37.8731861,144.9879791
175,182,182,POINT (144.9823241 -37.8732588),"Dickens Street, Elwood, Melbourne, City of Port Phillip, Victoria, 3182, Australia",-37.8732588,144.9823241
176,183,183,POINT (145.1270101 -37.9251284),"29, Browns Road, Clayton, Melbourne, City of Monash, Victoria, 3800, Australia",-37.9251284,145.1270101
177,184,184,POINT (145.3224925 -38.1222408),"Ossa Crescent, Pasadena, Clyde, Melbourne, City of Casey, Victoria, 3979, Australia",-38.1222408,145.3224925
178,185,185,POINT (144.9644748 -37.7346429),"Armstrong Street, Coburg, Melbourne, City of Merri-bek, Victoria, 3058, Australia",-37.7346429,144.9644748
179,186,186,POINT (144.7731565 -37.769919),"Ballarat Road, Deer Park, Melbourne, City of Brimbank, Victoria, 3023, Australia",-37.769919,144.7731565
180,187,187,POINT (144.7036608 -37.621168),"Festival Street, Diggers Rest, Melbourne, City of Melton, Victoria, 3427, Australia",-37.621168,144.7036608
181,188,188,POINT (144.9471193241901 -37.818273399999995),"Victoria Point, 100, Harbour Esplanade, Yarra’s Edge, Docklands, Melbourne, City of Melbourne, Victoria, 3008, Australia",-37.818273399999995,144.9471193241901
182,189,189,POINT (144.9471193241901 -37.818273399999995),"Victoria Point, 100, Harbour Esplanade, Yarra’s Edge, Docklands, Melbourne, City of Melbourne, Victoria, 3008, Australia",-37.818273399999995,144.9471193241901
183,190,190,POINT (144.95079937477038 -37.8215492),"Village Docklands V1 Tower, 8, McCrae Street, Batman's Hill, Docklands, Melbourne, City of Melbourne, Victoria, 3008, Australia",-37.8215492,144.95079937477038
184,191,191,POINT (144.9424288 -37.8205533),"888, Collins Street, Victoria Harbour, Docklands, Melbourne, City of Melbourne, Victoria, 3008, Australia",-37.8205533,144.9424288
185,192,192,POINT (145.24086010709445 -37.98267225),"4, Leigh Court, Doveton, Melbourne, City of Casey, Victoria, 3177, Australia",-37.98267225,145.24086010709445
186,193,193,POINT (144.983103 -38.3387081),"Rainier Avenue, Dromana, Melbourne, Shire of Mornington Peninsula, Victoria, 3936, Australia",-38.3387081,144.983103
187,194,194,POINT (144.988843 -37.8867152),"Pine Avenue, Elwood, Melbourne, City of Port Phillip, Victoria, 3184, Australia",-37.8867152,144.988843
188,195,195,POINT (144.9923128 -37.8823053),"Tennyson Street, Elwood, Melbourne, City of Port Phillip, Victoria, 3184, Australia",-37.8823053,144.9923128
189,196,196,POINT (144.9885598 -37.8649926),"Inkerman Street, St Kilda, Melbourne, City of Port Phillip, Victoria, 3182, Australia",-37.8649926,144.9885598
190,197,197,POINT (144.6459417 -37.8364049),"Bendigo Drive, Riverdale Village, Tarneit, Melbourne, City of Wyndham, Victoria, 3029, Australia",-37.8364049,144.6459417
191,198,198,POINT (144.8909717 -37.8116129),"Tongue Street, Yarraville, Melbourne, City of Maribyrnong, Victoria, 3013, Australia",-37.8116129,144.8909717
192,199,199,POINT (145.0340314 -37.9254963),"Coates Street, Bentleigh, Melbourne, City of Glen Eira, Victoria, 3204, Australia",-37.9254963,145.0340314
193,200,200,POINT (145.2819371 -38.0117137),"Anthony Court, Hallam, Melbourne, City of Casey, Victoria, 3803, Australia",-38.0117137,145.2819371
194,201,201,POINT (145.1888874 -37.9764559),"Hanna Street, Noble Park, Melbourne, City of Greater Dandenong, Victoria, 3174, Australia",-37.9764559,145.1888874
195,202,202,POINT (144.9441636228352 -37.83369355),"165, Station Street, Port Melbourne, Melbourne, City of Port Phillip, Victoria, 3207, Australia",-37.83369355,144.9441636228352
196,203,203,POINT (144.9576584 -37.8266468),"Haig Street, Southbank, Melbourne, City of Melbourne, Victoria, 3006, Australia",-37.8266468,144.9576584
197,204,204,POINT (144.9965233 -37.8075318),"56, Nicholson Street, Abbotsford, Melbourne, City of Yarra, Victoria, 3067, Australia",-37.8075318,144.9965233
198,205,205,POINT (145.0138185 -37.8116124),"Acacia Place, Abbotsford, Melbourne, City of Yarra, Victoria, 3121, Australia",-37.8116124,145.0138185
199,206,206,POINT (144.995012 -37.8002144),"BWS, 251, Johnston Street, Abbotsford, Melbourne, City of Yarra, Victoria, 3067, Australia",-37.8002144,144.995012
200,207,207,POINT (144.94856010498586 -37.846930650000004),"168-174, Victoria Avenue, Albert Park, Melbourne, City of Port Phillip, Victoria, 3206, Australia",-37.846930650000004,144.94856010498586
201,208,208,POINT (144.9171895 -37.7547779),"Mount Alexander Road, Essendon, Melbourne, City of Moonee Valley, Victoria, 3040, Australia",-37.7547779,144.9171895
202,209,209,POINT (144.9746793 -37.716152),"McBryde Street, Fawkner, Melbourne, City of Merri-bek, Victoria, 3060, Australia",-37.716152,144.9746793
203,210,210,POINT (144.974334 -37.8019866),"King William Street, Fitzroy, Melbourne, City of Yarra, Victoria, 3065, Australia",-37.8019866,144.974334
204,211,211,POINT (144.9084497 -37.8001089),"Victoria Square Tower 3 (VS01), 8, Hallenstein Street, Footscray, Melbourne, City of Maribyrnong, Victoria, 3011, Australia",-37.8001089,144.9084497
205,212,212,POINT (144.9065952 -37.8001343),"Tannery Walk, Footscray, Melbourne, City of Maribyrnong, Victoria, 3011, Australia",-37.8001343,144.9065952
206,213,213,POINT (144.9053087 -37.798355),"Cowper Street, Footscray, Melbourne, City of Maribyrnong, Victoria, 3011, Australia",-37.798355,144.9053087
207,214,214,POINT (145.1664942 -38.1463748),"Lucerne Crescent, Frankston, Melbourne, City of Frankston, Victoria, 3199, Australia",-38.1463748,145.1664942
208,215,215,POINT (145.1327979 -38.1532333),"Foot Street, Frankston, Melbourne, City of Frankston, Victoria, 3199, Australia",-38.1532333,145.1327979
209,216,216,POINT (145.1645871 -38.1426712),"Milford Crescent, Frankston, Melbourne, City of Frankston, Victoria, 3199, Australia",-38.1426712,145.1645871
210,217,217,POINT (145.0101608 -37.8806429),"Seymour Road, Elsternwick, Melbourne, City of Glen Eira, Victoria, 3185, Australia",-37.8806429,145.0101608
211,218,218,POINT (144.9783607 -37.8817507),"Glen Huntly Road, Elwood, Melbourne, City of Port Phillip, Victoria, 3184, Australia",-37.8817507,144.9783607
212,219,219,POINT (144.5827493 -37.6752989),"Brixton Place, Melton, Melbourne, City of Melton, Victoria, 3337, Australia",-37.6752989,144.5827493
213,220,220,POINT (145.002868 -37.8175232),"Griffiths Street, Richmond, Melbourne, City of Yarra, Victoria, 3121, Australia",-37.8175232,145.002868
214,221,221,POINT (145.0062281 -37.82077),"Fraser Street, Richmond, Melbourne, City of Yarra, Victoria, 3121, Australia",-37.82077,145.0062281
215,222,222,POINT (145.002868 -37.8175232),"Griffiths Street, Richmond, Melbourne, City of Yarra, Victoria, 3121, Australia",-37.8175232,145.002868
216,223,223,POINT (144.6572279 -37.8741792),"Latham Street, Werribee, Melbourne, City of Wyndham, Victoria, 3030, Australia",-37.8741792,144.6572279
217,224,224,POINT (144.7681767 -37.873393),"Skehan Boulevard, Altona Meadows, Melbourne, City of Hobsons Bay, Victoria, 3028, Australia",-37.873393,144.7681767
218,225,225,POINT (144.9003994 -37.7731784),"Woods Street, Ascot Vale, Melbourne, City of Moonee Valley, Victoria, 3032, Australia",-37.7731784,144.9003994
219,226,226,POINT (145.0391791 -37.6514302),"Peppercorn Parade, Epping, Melbourne, City of Whittlesea, Victoria, 3076, Australia",-37.6514302,145.0391791
220,227,227,POINT (145.146129152215 -38.14667225),"Frankston East Primary School, 6A, Ashleigh Avenue, Karingal, Frankston, Melbourne, City of Frankston, Victoria, 3199, Australia",-38.14667225,145.146129152215
221,228,228,POINT (145.0693293 -37.8965157),"Gerald Street, Murrumbeena, Melbourne, City of Glen Eira, Victoria, 3163, Australia",-37.8965157,145.0693293
222,229,229,POINT (144.878831 -37.7070485),"Broadmeadows Road, Tullamarine, Melbourne, City of Hume, Victoria, 3045, Australia",-37.7070485,144.878831
223,230,230,POINT (144.9290373 -37.7806046),"Kent Street, Ascot Vale, Melbourne, City of Moonee Valley, Victoria, 3032, Australia",-37.7806046,144.9290373
224,232,232,POINT (144.9638512 -37.7553969),"Moreland Road, Coburg, Melbourne, City of Merri-bek, Victoria, 3058, Australia",-37.7553969,144.9638512
225,233,233,POINT (145.0549143 -37.7031122),"48, Boadle Road, Bundoora, Melbourne, City of Darebin, Victoria, 3083, Australia",-37.7031122,145.0549143
226,234,234,POINT (145.0530376 -37.8863353),"Mimosa Road, Carnegie, Melbourne, City of Glen Eira, Victoria, 3145, Australia",-37.8863353,145.0530376
227,235,235,POINT (145.0610933 -37.8982233),"Woornack Road, Carnegie, Melbourne, City of Glen Eira, Victoria, 3163, Australia",-37.8982233,145.0610933
228,236,236,POINT (144.9472264 -37.7430052),"Rose Street, Coburg, Melbourne, City of Merri-bek, Victoria, 3058, Australia",-37.7430052,144.9472264
229,237,237,POINT (144.9472264 -37.7430052),"Rose Street, Coburg, Melbourne, City of Merri-bek, Victoria, 3058, Australia",-37.7430052,144.9472264
230,238,238,POINT (144.7597009 -37.7618165),"Tinto Close, Deer Park, Melbourne, City of Brimbank, Victoria, 3023, Australia",-37.7618165,144.7597009
231,239,239,POINT (144.925344 -37.7514398),"Pascoe Vale Road, Essendon, Melbourne, City of Moonee Valley, Victoria, 3040, Australia",-37.7514398,144.925344
232,240,240,POINT (144.9080178 -37.7582199),"Scott Street, Essendon, Melbourne, City of Moonee Valley, Victoria, 3040, Australia",-37.7582199,144.9080178
233,241,241,POINT (144.6455736 -37.9159745),"Natura Avenue, Riverwalk, Werribee, Melbourne, City of Wyndham, Victoria, 3030, Australia",-37.9159745,144.6455736
234,242,242,POINT (144.9653981 -37.6928974),"Birchwood Street, Fawkner, Melbourne, City of Merri-bek, Victoria, 3060, Australia",-37.6928974,144.9653981
235,244,244,POINT (144.7662522 -37.8870174),"Eagleview Place, Sanctuary Lakes, Point Cook, Melbourne, City of Wyndham, Victoria, 3030, Australia",-37.8870174,144.7662522
236,245,245,POINT (144.93899266030868 -37.837460899999996),"204, Princes Street, Beacon Cove, Port Melbourne, Melbourne, City of Port Phillip, Victoria, 3207, Australia",-37.837460899999996,144.93899266030868
237,246,246,POINT (145.0005503 -37.8108568),"Church Street, Richmond, Melbourne, City of Yarra, Victoria, 3121, Australia",-37.8108568,145.0005503
238,247,247,POINT (144.9500220120891 -37.8301288),"Gravity Tower, 89, Gladstone Street, South Melbourne, Melbourne, City of Port Phillip, Victoria, 3205, Australia",-37.8301288,144.9500220120891
239,248,248,POINT (144.9931004 -37.8359474),"Yarra Street, South Yarra, Melbourne, City of Stonnington, Victoria, 3141, Australia",-37.8359474,144.9931004
240,249,249,POINT (144.9913174 -37.8389465),"Toorak Road, South Yarra, Melbourne, City of Stonnington, Victoria, 3141, Australia",-37.8389465,144.9913174
241,250,250,POINT (144.9844144 -37.8429813),"Pasley Street, South Yarra, Melbourne, City of Melbourne, Victoria, 3141, Australia",-37.8429813,144.9844144
242,251,251,POINT (144.9652507 -37.8230438),"Kavanagh Street, Southbank, Melbourne, City of Melbourne, Victoria, 3006, Australia",-37.8230438,144.9652507
243,252,252,POINT (145.0000366 -37.8000381),"Trenerry Crescent, Abbotsford, Melbourne, City of Yarra, Victoria, 3067, Australia",-37.8000381,145.0000366
244,253,253,POINT (145.00927995896862 -37.810936),"The Parkhouse 631, 631, Victoria Street, Abbotsford, Melbourne, City of Yarra, Victoria, 3067, Australia",-37.810936,145.00927995896862
245,254,254,POINT (144.95334671566036 -37.84369965),"16, Moubray Lane, Albert Park, Melbourne, City of Port Phillip, Victoria, 3206, Australia",-37.84369965,144.95334671566036
246,255,255,POINT (144.95648433724682 -37.8374969),"1, Draper Street, Albert Park, Melbourne, City of Port Phillip, Victoria, 3205, Australia",-37.8374969,144.95648433724682
247,256,256,POINT (145.0205739 -37.8562349),"Kooyong Road, Armadale, Melbourne, City of Stonnington, Victoria, 3143, Australia",-37.8562349,145.0205739
248,257,257,POINT (145.0129015 -37.8518168),"Evergreen Mews, Toorak Park, Armadale, Melbourne, City of Stonnington, Victoria, 3143, Australia",-37.8518168,145.0129015
249,258,258,POINT (145.0470432 -37.9157704),"Balmoral Avenue, Bentleigh, Melbourne, City of Glen Eira, Victoria, 3204, Australia",-37.9157704,145.0470432
250,259,259,POINT (145.0041941 -37.8980471),"Spink Street, Brighton, Melbourne, City of Bayside, Victoria, 3186, Australia",-37.8980471,145.0041941
251,260,260,POINT (144.99382795 -37.901868025),"350, New Street, Brighton, Melbourne, City of Bayside, Victoria, 3186, Australia",-37.901868025,144.99382795
252,261,261,POINT (144.9921995 -37.8837346),"St Kilda Street, Brighton, Melbourne, City of Bayside, Victoria, 3186, Australia",-37.8837346,144.9921995
253,262,262,POINT (144.957294 -37.7642981),"Cliff Street, Brunswick, Melbourne, City of Merri-bek, Victoria, 3056, Australia",-37.7642981,144.957294
254,263,263,POINT (144.9492908 -37.7656263),"Pearson Street, Brunswick West, Melbourne, City of Merri-bek, Victoria, 3055, Australia",-37.7656263,144.9492908
255,264,264,POINT (144.9627694 -37.7731983),"Dods Street, Brunswick, Melbourne, City of Merri-bek, Victoria, 3056, Australia",-37.7731983,144.9627694
256,265,265,POINT (144.9441079 -37.7629717),"Melville Road, Brunswick West, Melbourne, City of Merri-bek, Victoria, 3055, Australia",-37.7629717,144.9441079
257,266,266,POINT (144.9817738 -37.8063066),"Gore Street, Fitzroy, Melbourne, City of Yarra, Victoria, 3065, Australia",-37.8063066,144.9817738
258,267,267,POINT (145.0018819 -37.841762),"Walter Street, South Yarra, Melbourne, City of Stonnington, Victoria, 3141, Australia",-37.841762,145.0018819
259,268,268,POINT (144.9340239 -37.7733898),"Myrnong Crescent, Ascot Vale, Melbourne, City of Moonee Valley, Victoria, 3032, Australia",-37.7733898,144.9340239
260,269,269,POINT (145.3425556 -38.0695085),"Limousin Court, Berwick, Melbourne, City of Casey, Victoria, 3807, Australia",-38.0695085,145.3425556
261,270,270,POINT (144.9632159 -37.760734),"Sydney Road, Brunswick, Melbourne, City of Merri-bek, Victoria, 3056, Australia",-37.760734,144.9632159
262,271,271,POINT (145.0719789 -37.6896218),"Ambrose Treacy Drive, Bundoora, Melbourne, City of Banyule, Victoria, 3083, Australia",-37.6896218,145.0719789
263,272,272,POINT (145.0713186 -37.6823227),"Chancellor Avenue, University Hill Precinct, Bundoora, Melbourne, City of Whittlesea, Victoria, 3082, Australia",-37.6823227,145.0713186
264,273,273,POINT (145.048798 -37.8902121),"Glen Huntly Road, Carnegie, Melbourne, City of Glen Eira, Victoria, 3145, Australia",-37.8902121,145.048798
265,274,274,POINT (144.9614112 -37.7530104),"Hall Street, Coburg, Melbourne, City of Merri-bek, Victoria, 3058, Australia",-37.7530104,144.9614112
266,275,275,POINT (144.98484087830013 -37.8015771),"44, Bedford Street, Collingwood, Melbourne, City of Yarra, Victoria, 3066, Australia",-37.8015771,144.98484087830013
267,276,276,POINT (144.8967127 -37.5901591),"Mountleigh Circuit, Craigieburn, Melbourne, City of Hume, Victoria, 3064, Australia",-37.5901591,144.8967127
268,277,277,POINT (144.9033553 -37.5671879),"Merrica Court, Craigieburn, Melbourne, City of Hume, Victoria, 3064, Australia",-37.5671879,144.9033553
269,278,278,POINT (144.88590262642904 -37.78392085),"4, Merlyn Street, Maribyrnong, Melbourne, City of Maribyrnong, Victoria, 3032, Australia",-37.78392085,144.88590262642904
270,279,279,POINT (145.0950478 -37.7146798),"Elder Street, Greensborough, Melbourne, City of Banyule, Victoria, 3088, Australia",-37.7146798,145.0950478
271,280,280,POINT (145.063448 -37.7538639),"Darebin Street, Heidelberg, Melbourne, City of Banyule, Victoria, 3084, Australia",-37.7538639,145.063448
272,281,281,POINT (145.0716372 -37.7504079),"Quinn Street, Heidelberg, Melbourne, City of Banyule, Victoria, 3084, Australia",-37.7504079,145.0716372
273,282,282,POINT (144.6847654 -37.8837044),"Claremont Crescent, Woodville, Hoppers Crossing, Melbourne, City of Wyndham, Victoria, 3029, Australia",-37.8837044,144.6847654
274,283,283,POINT (144.6889774 -37.8649857),"Cation Avenue, Mossfiel, Hoppers Crossing, Melbourne, City of Wyndham, Victoria, 3029, Australia",-37.8649857,144.6889774
275,284,284,POINT (144.706566 -37.8678751),"Tudor Court, Hoppers Crossing, Melbourne, City of Wyndham, Victoria, 3029, Australia",-37.8678751,144.706566
276,285,285,POINT (145.2042924 -37.9755476),"David Street, Dandenong, Melbourne, City of Greater Dandenong, Victoria, 3174, Australia",-37.9755476,145.2042924
277,286,286,POINT (144.7576837 -37.7535202),"Columbia Court, Deer Park, Melbourne, City of Brimbank, Victoria, 3023, Australia",-37.7535202,144.7576837
278,287,287,POINT (144.6970636 -37.6203451),"Lindbergh Boulevard, Diggers Rest, Melbourne, City of Melton, Victoria, 3427, Australia",-37.6203451,144.6970636
279,288,288,POINT (144.9471193241901 -37.818273399999995),"Victoria Point, 100, Harbour Esplanade, Yarra’s Edge, Docklands, Melbourne, City of Melbourne, Victoria, 3008, Australia",-37.818273399999995,144.9471193241901
280,289,289,POINT (145.1104723 -37.6037562),"Woodridge Crescent, Vantage Point Estate, Doreen, Melbourne, City of Whittlesea, Victoria, 3754, Australia",-37.6037562,145.1104723
281,290,290,POINT (144.9774937 -38.3382284),"Canna Street, Dromana, Melbourne, Shire of Mornington Peninsula, Victoria, 3936, Australia",-38.3382284,144.9774937
282,291,291,POINT (144.9613806 -38.3347265),"McCulloch Street, Dromana, Melbourne, Shire of Mornington Peninsula, Victoria, 3936, Australia",-38.3347265,144.9613806
283,292,292,POINT (145.0108279 -37.8885973),"Parkside Street, Elsternwick, Melbourne, City of Glen Eira, Victoria, 3185, Australia",-37.8885973,145.0108279
284,293,293,POINT (145.0168108 -37.6284042),"Duke Street, Lyndarum Estate, Epping, Melbourne, City of Whittlesea, Victoria, 3076, Australia",-37.6284042,145.0168108
285,294,294,POINT (144.9191479 -37.7562278),"Willow Street, Essendon South Retail Commercial Dining Precinct, Essendon, Melbourne, City of Moonee Valley, Victoria, 3040, Australia",-37.7562278,144.9191479
286,295,295,POINT (144.9168203 -37.751517),"Grice Crescent, Essendon, Melbourne, City of Moonee Valley, Victoria, 3040, Australia",-37.751517,144.9168203
287,296,296,POINT (144.92112866942296 -37.7868268),"Quest Flemington Central, 1, Ascot Vale Road, Newmarket, Flemington, Melbourne, City of Moonee Valley, Victoria, 3031, Australia",-37.7868268,144.92112866942296
288,297,297,POINT (144.9214835 -37.7871796),"Ascot Vale Road, Newmarket, Flemington, Melbourne, City of Moonee Valley, Victoria, 3031, Australia",-37.7871796,144.9214835
289,298,298,POINT (145.3339971 -38.1251816),"Kernot Parade, Eliston, Clyde, Melbourne, City of Casey, Victoria, 3978, Australia",-38.1251816,145.3339971
290,299,299,POINT (144.947233 -37.8191279),"Waterview Walk, Batman's Hill, Docklands, Melbourne, City of Melbourne, Victoria, 3008, Australia",-37.8191279,144.947233
291,300,300,POINT (144.9096718 -37.7993936),"6, Joseph Road, Footscray, Melbourne, City of Maribyrnong, Victoria, 3011, Australia",-37.7993936,144.9096718
292,301,301,POINT (144.914181 -37.7982376),"Joseph Road, Footscray, Melbourne, City of Maribyrnong, Victoria, 3011, Australia",-37.7982376,144.914181
293,302,302,POINT (144.9096718 -37.7993936),"6, Joseph Road, Footscray, Melbourne, City of Maribyrnong, Victoria, 3011, Australia",-37.7993936,144.9096718
294,303,303,POINT (144.9095079 -37.8003238),"2, Joseph Road, Footscray, Melbourne, City of Maribyrnong, Victoria, 3011, Australia",-37.8003238,144.9095079
295,304,304,POINT (144.9095079 -37.8003238),"2, Joseph Road, Footscray, Melbourne, City of Maribyrnong, Victoria, 3011, Australia",-37.8003238,144.9095079
296,305,305,POINT (144.9095079 -37.8003238),"2, Joseph Road, Footscray, Melbourne, City of Maribyrnong, Victoria, 3011, Australia",-37.8003238,144.9095079
297,306,306,POINT (145.1286932 -38.1547605),"Mount View Court, Frankston, Melbourne, City of Frankston, Victoria, 3199, Australia",-38.1547605,145.1286932
298,307,307,POINT (145.1268374 -38.1488042),"Yuille Street, Frankston, Melbourne, City of Frankston, Victoria, 3199, Australia",-38.1488042,145.1268374
299,308,308,POINT (145.1691163 -37.8858445),"24, Wilson Road, Glen Waverley, Melbourne, City of Monash, Victoria, 3150, Australia",-37.8858445,145.1691163
300,309,309,POINT (144.9186149 -37.6988336),"Trevannion Street, Glenroy, Melbourne, City of Merri-bek, Victoria, 3046, Australia",-37.6988336,144.9186149
301,310,310,POINT (145.0376521 -37.8491014),"Ethel Street, Malvern, Melbourne, City of Stonnington, Victoria, 3144, Australia",-37.8491014,145.0376521
302,311,311,POINT (144.887936 -37.8178424),"Ovens Street, Yarraville, Melbourne, City of Maribyrnong, Victoria, 3013, Australia",-37.8178424,144.887936
303,312,312,POINT (144.98532849848002 -37.79458755),"Trilby, 470, Smith Street, Collingwood, Melbourne, City of Yarra, Victoria, 3066, Australia",-37.79458755,144.98532849848002
304,313,313,POINT (144.9640301 -38.3376024),"Arthur Street, Dromana, Melbourne, Shire of Mornington Peninsula, Victoria, 3936, Australia",-38.3376024,144.9640301
305,314,314,POINT (144.9605203 -37.7146727),"Fawkner, Upfield Shared Path, Hadfield, Melbourne, City of Merri-bek, Victoria, 3060, Australia",-37.7146727,144.9605203
306,315,315,POINT (144.9549447 -37.8025285),"18, Courtney Street, North Melbourne, Melbourne, City of Melbourne, Victoria, 3051, Australia",-37.8025285,144.9549447
307,316,316,POINT (145.0177366 -37.714226),"Lane Crescent, Reservoir, Melbourne, City of Darebin, Victoria, 3073, Australia",-37.714226,145.0177366
308,317,317,POINT (144.9633593 -37.8229812),"City Road, Southbank, Melbourne, City of Melbourne, Victoria, 3006, Australia",-37.8229812,144.9633593
309,318,318,POINT (145.3548851 -38.0707966),"Emmett Avenue, Berwick, Melbourne, City of Casey, Victoria, 3807, Australia",-38.0707966,145.3548851
310,319,319,POINT (145.3577126 -38.0617911),"Nixon Drive, Berwick, Melbourne, City of Casey, Victoria, 3807, Australia",-38.0617911,145.3577126
311,320,320,POINT (144.9687667 -37.7702225),"Evans Street, Brunswick, Melbourne, City of Merri-bek, Victoria, 3056, Australia",-37.7702225,144.9687667
312,321,321,POINT (144.7349565 -37.7217301),"Lindley Avenue, Caroline Springs, Melbourne, City of Melton, Victoria, 3336, Australia",-37.7217301,144.7349565
313,322,322,POINT (144.5763183 -37.6874805),"Fay Street, Melton, Melbourne, City of Melton, Victoria, 3337, Australia",-37.6874805,144.5763183
314,323,323,POINT (145.1803919 -37.9545152),"Callander Road, Noble Park, Melbourne, City of Greater Dandenong, Victoria, 3174, Australia",-37.9545152,145.1803919
315,324,324,POINT (144.9405697 -37.7385709),"Bell Street, Pascoe Vale South, Melbourne, City of Merri-bek, Victoria, 3044, Australia",-37.7385709,144.9405697
316,325,325,POINT (145.1330842 -38.1290218),"Frankston-Dandenong Road, Seaford, Melbourne, City of Frankston, Victoria, 3198, Australia",-38.1290218,145.1330842
317,326,326,POINT (144.7984213 -37.7411407),"Arthur Street, St Albans, Melbourne, City of Brimbank, Victoria, 3021, Australia",-37.7411407,144.7984213
318,327,327,POINT (144.9881734 -37.8590139),"Crimea Street, St Kilda, Melbourne, City of Port Phillip, Victoria, 3182, Australia",-37.8590139,144.9881734
319,328,328,POINT (145.0084837 -37.6822044),"Spring Street, Thomastown, Melbourne, City of Whittlesea, Victoria, 3074, Australia",-37.6822044,145.0084837
320,329,329,POINT (145.0098471 -37.8459827),"Canterbury Road, Toorak, Melbourne, City of Stonnington, Victoria, 3142, Australia",-37.8459827,145.0098471
321,330,330,POINT (144.8780146 -37.6951337),"Tadstan Drive, Tullamarine, Melbourne, City of Hume, Victoria, 3045, Australia",-37.6951337,144.8780146
322,331,331,POINT (144.6536722 -37.9019088),"Cottrell Street, Werribee, Melbourne, City of Wyndham, Victoria, 3030, Australia",-37.9019088,144.6536722
323,332,332,POINT (144.6573807 -37.8969538),"Hogan Grove, Werribee, Melbourne, City of Wyndham, Victoria, 3030, Australia",-37.8969538,144.6573807
324,333,333,POINT (144.681469 -37.8933709),"Princes Highway, Werribee, Melbourne, City of Wyndham, Victoria, 3030, Australia",-37.8933709,144.681469
325,334,334,POINT (144.681469 -37.8933709),"Princes Highway, Werribee, Melbourne, City of Wyndham, Victoria, 3030, Australia",-37.8933709,144.681469
326,335,335,POINT (144.8162588 -37.7438081),"Harmon Avenue, St Albans, Melbourne, City of Brimbank, Victoria, 3021, Australia",-37.7438081,144.8162588
327,336,336,POINT (144.6776368 -37.8218845),"Lay Street, Emerald Park, Tarneit, Melbourne, City of Wyndham, Victoria, 3029, Australia",-37.8218845,144.6776368
328,337,337,POINT (144.6119213 -37.8937301),"Butler Grove, Bluestone, Wyndham Vale, Melbourne, City of Wyndham, Victoria, 3024, Australia",-37.8937301,144.6119213
329,338,338,POINT (144.6216383 -37.8664269),"Boxer Drive, Wynbrook, Wyndham Vale, Melbourne, City of Wyndham, Victoria, 3024, Australia",-37.8664269,144.6216383
330,339,339,POINT (144.6189537 -37.8710489),"Vogue Drive, Gem, Wyndham Vale, Melbourne, City of Wyndham, Victoria, 3024, Australia",-37.8710489,144.6189537
331,340,340,POINT (144.9386224 -37.6972147),"140, Evell Street, Glenroy, Melbourne, City of Merri-bek, Victoria, 3046, Australia",-37.6972147,144.9386224
332,341,341,POINT (145.0345806 -37.7280452),"Seston Street, Reservoir, Melbourne, City of Darebin, Victoria, 3081, Australia",-37.7280452,145.0345806
333,342,342,POINT (144.9791239 -37.859017),"151a, Fitzroy Street, St Kilda, Melbourne, City of Port Phillip, Victoria, 3182, Australia",-37.859017,144.9791239
334,343,343,POINT (145.0057297 -37.7163313),"Edwardes Street, Reservoir, Melbourne, City of Darebin, Victoria, 3073, Australia",-37.7163313,145.0057297
335,344,344,POINT (145.0166012 -37.7097348),"Crookston Road, Reservoir, Melbourne, City of Darebin, Victoria, 3073, Australia",-37.7097348,145.0166012
336,345,345,POINT (145.12472175409886 -38.124531950000005),"277, Nepean Highway, Kananook, Seaford, Melbourne, City of Frankston, Victoria, 3198, Australia",-38.124531950000005,145.12472175409886
337,346,346,POINT (144.97737569999998 -37.86639205),"Easystay Studio Apartments, 65, Acland Street, St Kilda, Melbourne, City of Port Phillip, Victoria, 3182, Australia",-37.86639205,144.97737569999998
338,347,347,POINT (144.996355 -37.7545022),"Murray Street, Thornbury, Melbourne, City of Darebin, Victoria, 3071, Australia",-37.7545022,144.996355
339,348,348,POINT (144.6653137 -37.8993649),"Kelly Street, Werribee, Melbourne, City of Wyndham, Victoria, 3030, Australia",-37.8993649,144.6653137
340,349,349,POINT (144.8999154 -37.8683493),"Cole Street, Williamstown, Melbourne, City of Hobsons Bay, Victoria, 3016, Australia",-37.8683493,144.8999154
341,350,350,POINT (144.6554187 -37.8842654),"Derwent Road, Riverdene, Werribee, Melbourne, City of Wyndham, Victoria, 3030, Australia",-37.8842654,144.6554187
342,351,351,POINT (144.9989642 -37.7603687),"Shaftesbury Parade, Thornbury, Melbourne, City of Darebin, Victoria, 3071, Australia",-37.7603687,144.9989642
343,352,352,POINT (144.67017944664036 -37.903155749999996),"4, Goegan Street, Werribee, Melbourne, City of Wyndham, Victoria, 3030, Australia",-37.903155749999996,144.67017944664036
344,353,353,POINT (144.914282 -37.7757433),"Munro Street, Ascot Vale, Melbourne, City of Moonee Valley, Victoria, 3032, Australia",-37.7757433,144.914282
345,354,354,POINT (144.9467011 -37.7712374),"Fitzgibbon Avenue, Brunswick West, Melbourne, City of Merri-bek, Victoria, 3055, Australia",-37.7712374,144.9467011
346,355,355,POINT (144.9537967 -37.7547274),"Garnet Street, Brunswick, Melbourne, City of Merri-bek, Victoria, 3056, Australia",-37.7547274,144.9537967
347,356,356,POINT (145.0576979 -37.6839022),"Sharman Court, Bundoora, Melbourne, City of Whittlesea, Victoria, 3082, Australia",-37.6839022,145.0576979
348,357,357,POINT (145.012362 -37.6691168),"Dickens Street, Lalor, Melbourne, City of Whittlesea, Victoria, 3075, Australia",-37.6691168,145.012362
349,358,358,POINT (145.0399943 -37.8584812),"Horace Street, Malvern, Melbourne, City of Stonnington, Victoria, 3144, Australia",-37.8584812,145.0399943
350,359,359,POINT (144.89025677835664 -37.78396695),"1, Mitchell Street, Maribyrnong, Melbourne, City of Maribyrnong, Victoria, 3032, Australia",-37.78396695,144.89025677835664
351,360,360,POINT (145.2075205 -37.9788635),"James Street, Dandenong, Melbourne, City of Greater Dandenong, Victoria, 3174, Australia",-37.9788635,145.2075205
352,361,361,POINT (145.2105996 -37.9962773),"Raymond Street, Dandenong, Melbourne, City of Greater Dandenong, Victoria, 3175, Australia",-37.9962773,145.2105996
353,362,362,POINT (145.2286084 -37.9804729),"Jesson Crescent, Dandenong, Melbourne, City of Greater Dandenong, Victoria, 3177, Australia",-37.9804729,145.2286084
354,364,364,POINT (144.94331281305554 -37.8134445),"241, Harbour Esplanade, Docklands, Melbourne, City of Melbourne, Victoria, 3008, Australia",-37.8134445,144.94331281305554
355,365,365,POINT (144.94331281305554 -37.8134445),"241, Harbour Esplanade, Docklands, Melbourne, City of Melbourne, Victoria, 3008, Australia",-37.8134445,144.94331281305554
356,366,366,POINT (144.9393001 -37.8141397),"Docklands Drive, Docklands, Melbourne, City of Melbourne, Victoria, 3008, Australia",-37.8141397,144.9393001
357,367,367,POINT (144.9465431 -37.8222478),"Australian Wharf, Victoria Harbour, Docklands, Melbourne, City of Melbourne, Victoria, 3008, Australia",-37.8222478,144.9465431
358,368,368,POINT (144.94186226006886 -37.821186499999996),"889 Collins Street, Collins Street, Victoria Harbour, Docklands, Melbourne, City of Melbourne, Victoria, 3008, Australia",-37.821186499999996,144.94186226006886
359,369,369,POINT (144.9444306 -37.8198249),"815, Bourke Street, Victoria Harbour, Docklands, Melbourne, City of Melbourne, Victoria, 3008, Australia",-37.8198249,144.9444306
360,370,370,POINT (144.9424288 -37.8205533),"888, Collins Street, Victoria Harbour, Docklands, Melbourne, City of Melbourne, Victoria, 3008, Australia",-37.8205533,144.9424288
361,371,371,POINT (145.0103723 -37.6599166),"Kanimbla Drive, Lalor, Melbourne, City of Whittlesea, Victoria, 3075, Australia",-37.6599166,145.0103723
362,372,372,POINT (145.0120786 -37.6640545),"15 Linoak Avenue, Lalor, Melbourne, City of Whittlesea, Victoria, 3075, Australia",-37.6640545,145.0120786
363,373,373,POINT (145.0341101 -37.6636326),"Ashdown Court, Lalor, Melbourne, City of Whittlesea, Victoria, 3075, Australia",-37.6636326,145.0341101
364,374,374,POINT (144.8997345 -37.7664056),"Clyde Street, Maribyrnong, Melbourne, City of Maribyrnong, Victoria, 3032, Australia",-37.7664056,144.8997345
365,375,375,POINT (145.0920606 -37.6127269),"Waterview Drive, Woodland Waters, Mernda, Melbourne, City of Whittlesea, Victoria, 3752, Australia",-37.6127269,145.0920606
366,376,376,POINT (145.1129525 -37.919949),"Ormond Road, Clayton, Melbourne, City of Monash, Victoria, 3169, Australia",-37.919949,145.1129525
367,377,377,POINT (145.1270512 -37.9145812),"North Road, Clayton, Melbourne, City of Monash, Victoria, 3800, Australia",-37.9145812,145.1270512
368,378,378,POINT (144.9688758 -37.7378221),"The Boot Factory, 19, Pentridge Boulevard, Coburg, Melbourne, City of Merri-bek, Victoria, 3058, Australia",-37.7378221,144.9688758
369,379,379,POINT (144.9738472 -37.7457489),"79, Harding Street, Coburg, Melbourne, City of Merri-bek, Victoria, 3058, Australia",-37.7457489,144.9738472
370,380,380,POINT (144.9686946 -37.7403864),"Urquhart Street, Coburg, Melbourne, City of Merri-bek, Victoria, 3058, Australia",-37.7403864,144.9686946
371,381,381,POINT (144.96786 -37.7379727),"Pentridge Boulevard, Coburg, Melbourne, City of Merri-bek, Victoria, 3058, Australia",-37.7379727,144.96786
372,382,382,POINT (144.9558585 -37.7439494),"Munro Street, Coburg, Melbourne, City of Merri-bek, Victoria, 3058, Australia",-37.7439494,144.9558585
373,383,383,POINT (144.9160248 -37.5888261),"Grattan Cove, Craigieburn, Melbourne, City of Hume, Victoria, 3064, Australia",-37.5888261,144.9160248
374,384,384,POINT (145.1749806 -37.8984045),"70, View Mount Road, Wheelers Hill, Melbourne, City of Monash, Victoria, 3150, Australia",-37.8984045,145.1749806
375,385,385,POINT (145.1919758 -37.9159337),"Sara Drive, Wheelers Hill, Melbourne, City of Monash, Victoria, 3170, Australia",-37.9159337,145.1919758
376,386,386,POINT (144.90530988338375 -37.78662295),"50, Fisher Parade, Ascot Vale, Melbourne, City of Moonee Valley, Victoria, 3032, Australia",-37.78662295,144.90530988338375
377,387,387,POINT (144.9130775 -37.7727014),"65, The Parade, Ascot Vale, Melbourne, City of Moonee Valley, Victoria, 3032, Australia",-37.7727014,144.9130775
378,388,388,POINT (144.9952124 -37.9064429),"Barkly Street, Brighton, Melbourne, City of Bayside, Victoria, 3186, Australia",-37.9064429,144.9952124
379,389,389,POINT (144.9627694 -37.7731983),"Dods Street, Brunswick, Melbourne, City of Merri-bek, Victoria, 3056, Australia",-37.7731983,144.9627694
380,390,390,POINT (144.9501564 -37.7387284),"Soudan Street, Coburg, Melbourne, City of Merri-bek, Victoria, 3058, Australia",-37.7387284,144.9501564
381,391,391,POINT (145.0690297 -37.7565653),"Burgundy Street, Heidelberg, Melbourne, City of Banyule, Victoria, 3084, Australia",-37.7565653,145.0690297
382,392,392,POINT (145.05937712614258 -37.7542093),"9, Martin Street, Heidelberg, Melbourne, City of Banyule, Victoria, 3084, Australia",-37.7542093,145.05937712614258
383,393,393,POINT (145.0859966 -37.9036436),"133, Warrigal Road, Hughesdale, Melbourne, City of Monash, Victoria, 3166, Australia",-37.9036436,145.0859966
384,394,394,POINT (145.0440419 -37.7680222),"Westley Avenue, Ivanhoe, Melbourne, City of Banyule, Victoria, 3079, Australia",-37.7680222,145.0440419
385,395,395,POINT (145.04459990270982 -37.757381550000005),"Insignia Ivanhoe, 264, Waterdale Road, Ivanhoe, Melbourne, City of Banyule, Victoria, 3079, Australia",-37.757381550000005,145.04459990270982
386,396,396,POINT (145.0405781 -37.7728723),"Heidelberg Road, Ivanhoe, Melbourne, City of Banyule, Victoria, 3079, Australia",-37.7728723,145.0405781
387,397,397,POINT (145.0002714 -37.6665085),"Pinetree Crescent, Lalor, Melbourne, City of Whittlesea, Victoria, 3075, Australia",-37.6665085,145.0002714
388,398,398,POINT (144.9909364 -37.6688573),"Waitara Court, Lalor, Melbourne, City of Whittlesea, Victoria, 3075, Australia",-37.6688573,144.9909364
389,400,400,POINT (144.98359005676784 -37.8566181),"The Icon St Kilda, 6, St Kilda Road, St Kilda, Melbourne, City of Port Phillip, Victoria, 3182, Australia",-37.8566181,144.98359005676784
390,401,401,POINT (144.9527851 -37.77627728809524),"308, Brunswick Road, Brunswick, Melbourne, City of Merri-bek, Victoria, 3056, Australia",-37.77627728809524,144.9527851
391,402,402,POINT (144.9403317 -37.8138849),"Rakaia Way, NewQuay, Docklands, Melbourne, City of Melbourne, Victoria, 3008, Australia",-37.8138849,144.9403317
392,403,403,POINT (144.9364135 -37.8422084),"Beach Street, Beacon Cove, Port Melbourne, Melbourne, City of Port Phillip, Victoria, 3207, Australia",-37.8422084,144.9364135
393,404,404,POINT (144.9570188 -37.8334603),"South Melbourne, Melbourne, City of Port Phillip, Victoria, 3205, Australia",-37.8334603,144.9570188
394,405,405,POINT (145.0290472 -37.8435559),"Toorak Road, Toorak, Melbourne, City of Stonnington, Victoria, 3142, Australia",-37.8435559,145.0290472
395,406,406,POINT (145.0118159 -37.8147977),"David Street, Richmond, Melbourne, City of Yarra, Victoria, 3121, Australia",-37.8147977,145.0118159
396,407,407,POINT (145.0171321 -37.8577161),"Sutherland Road, Armadale, Melbourne, City of Stonnington, Victoria, 3143, Australia",-37.8577161,145.0171321
397,408,408,POINT (144.9499437 -37.797545),"Harker Street, North Melbourne, Melbourne, City of Melbourne, Victoria, 3051, Australia",-37.797545,144.9499437
398,409,409,POINT (144.94262058213803 -37.83292385),"132, Evans Street, Port Melbourne, Melbourne, City of Port Phillip, Victoria, 3207, Australia",-37.83292385,144.94262058213803
399,410,410,POINT (144.9951397 -37.8384596),"Almeida Crescent, South Yarra, Melbourne, City of Stonnington, Victoria, 3141, Australia",-37.8384596,144.9951397
400,411,411,POINT (144.9627853 -37.8217918),"Freshwater Place, Southbank, Melbourne, City of Melbourne, Victoria, 3006, Australia",-37.8217918,144.9627853
401,412,412,POINT (144.9969425 -37.8042329),"Nicholson Street, Abbotsford, Melbourne, City of Yarra, Victoria, 3067, Australia",-37.8042329,144.9969425
402,413,413,POINT (145.055501 -37.8937631),"Truganini Road, Carnegie, Melbourne, City of Glen Eira, Victoria, 3163, Australia",-37.8937631,145.055501
403,414,414,POINT (144.9597064 -37.7370216),"O'Hea Street, Coburg, Melbourne, City of Merri-bek, Victoria, 3058, Australia",-37.7370216,144.9597064
404,415,415,POINT (145.165506 -37.8629491),"14, Crows Lane, Glen Waverley, Melbourne, City of Monash, Victoria, 3150, Australia",-37.8629491,145.165506
405,416,416,POINT (144.9913174 -37.8389465),"Toorak Road, South Yarra, Melbourne, City of Stonnington, Victoria, 3141, Australia",-37.8389465,144.9913174
406,417,417,POINT (144.9652507 -37.8230438),"Kavanagh Street, Southbank, Melbourne, City of Melbourne, Victoria, 3006, Australia",-37.8230438,144.9652507
407,418,418,POINT (145.0110516 -37.8267541),"Queen Street, Richmond, Melbourne, City of Yarra, Victoria, 3121, Australia",-37.8267541,145.0110516
408,419,419,POINT (145.0083241 -37.8264432),"Cutter Street, Richmond, Melbourne, City of Yarra, Victoria, 3121, Australia",-37.8264432,145.0083241
409,420,420,POINT (145.1627726 -37.9002988),"7/506-512, Springvale Road, Glen Waverley, Melbourne, City of Monash, Victoria, 3150, Australia",-37.9002988,145.1627726
410,421,421,POINT (145.1709397 -37.8654245),"4, Wynyard Street, Glen Waverley, Melbourne, City of Monash, Victoria, 3150, Australia",-37.8654245,145.1709397
411,422,422,POINT (145.1576934 -37.8957132),"68, Fraser Street, Glen Waverley, Melbourne, City of Monash, Victoria, 3150, Australia",-37.8957132,145.1576934
412,423,423,POINT (144.9354002 -37.7028595),"Maude Avenue, Glenroy, Melbourne, City of Merri-bek, Victoria, 3046, Australia",-37.7028595,144.9354002
413,424,424,POINT (144.921322 -37.7028188),"Granville Street, Glenroy, Melbourne, City of Merri-bek, Victoria, 3046, Australia",-37.7028188,144.921322
414,425,425,POINT (144.9289551 -37.6962572),"View Street, Glenroy, Melbourne, City of Merri-bek, Victoria, 3047, Australia",-37.6962572,144.9289551
415,426,426,POINT (144.915142 -37.7018669),"Pascoe Vale Road, Glenroy, Melbourne, City of Merri-bek, Victoria, 3046, Australia",-37.7018669,144.915142
416,427,427,POINT (144.9097592 -37.7101259),"William Street, Glenroy, Melbourne, City of Merri-bek, Victoria, 3041, Australia",-37.7101259,144.9097592
417,428,428,POINT (145.0982629 -37.717354),"7, Kolonga Court, Greensborough, Melbourne, City of Banyule, Victoria, 3088, Australia",-37.717354,145.0982629
418,429,429,POINT (144.947061 -37.7031157),"Thames Street, Hadfield, Melbourne, City of Merri-bek, Victoria, 3060, Australia",-37.7031157,144.947061
419,430,430,POINT (144.9446411 -37.7046405),"Regent Street, North Street Shopping Centre, Hadfield, Melbourne, City of Merri-bek, Victoria, 3046, Australia",-37.7046405,144.9446411
420,431,431,POINT (144.9387072 -37.7049821),"West Street, Hadfield, Melbourne, City of Merri-bek, Victoria, 3046, Australia",-37.7049821,144.9387072
421,432,432,POINT (145.02088007119625 -37.94129945),"23, Thorburn Street, Hampton, Melbourne, City of Bayside, Victoria, 3188, Australia",-37.94129945,145.02088007119625
422,433,433,POINT (145.0649655 -37.7554871),"96, Hawdon Street, Heidelberg, Melbourne, City of Banyule, Victoria, 3084, Australia",-37.7554871,145.0649655
423,434,434,POINT (144.9633593 -37.8229812),"City Road, Southbank, Melbourne, City of Melbourne, Victoria, 3006, Australia",-37.8229812,144.9633593
424,435,435,POINT (144.9666729 -37.8300058),"Coventry Street, Southbank, Melbourne, City of Melbourne, Victoria, 3006, Australia",-37.8300058,144.9666729
425,436,436,POINT (144.9633593 -37.8229812),"City Road, Southbank, Melbourne, City of Melbourne, Victoria, 3006, Australia",-37.8229812,144.9633593
426,437,437,POINT (144.9633593 -37.8229812),"City Road, Southbank, Melbourne, City of Melbourne, Victoria, 3006, Australia",-37.8229812,144.9633593
427,438,438,POINT (144.96236794162414 -37.8246239),"Melbourne Tower, 173, City Road, Southbank, Melbourne, City of Melbourne, Victoria, 3006, Australia",-37.8246239,144.96236794162414
428,439,439,POINT (144.9633593 -37.8229812),"City Road, Southbank, Melbourne, City of Melbourne, Victoria, 3006, Australia",-37.8229812,144.9633593
429,440,440,POINT (144.96317 -37.8260731),"Bale Circuit, Southbank, Melbourne, City of Melbourne, Victoria, 3006, Australia",-37.8260731,144.96317
430,441,441,POINT (144.96747312152553 -37.8306244),"68-70, Dorcas Street, Southbank, Melbourne, City of Melbourne, Victoria, 3006, Australia",-37.8306244,144.96747312152553
431,442,442,POINT (144.9576584 -37.8266468),"Haig Street, Southbank, Melbourne, City of Melbourne, Victoria, 3006, Australia",-37.8266468,144.9576584
432,443,443,POINT (144.9620137 -37.8240916),"Foodworks, 180, City Road, Southbank, Melbourne, City of Melbourne, Victoria, 3006, Australia",-37.8240916,144.9620137
433,444,444,POINT (144.95997799999998 -37.82646615),"241, City Road, Southbank, Melbourne, City of Melbourne, Victoria, 3006, Australia",-37.82646615,144.95997799999998
434,445,445,POINT (144.9633593 -37.8229812),"City Road, Southbank, Melbourne, City of Melbourne, Victoria, 3006, Australia",-37.8229812,144.9633593
435,446,446,POINT (144.9595223 -37.8276418),"Hancock Street, Southbank, Melbourne, City of Melbourne, Victoria, 3006, Australia",-37.8276418,144.9595223
436,447,447,POINT (144.9595223 -37.8276418),"Hancock Street, Southbank, Melbourne, City of Melbourne, Victoria, 3006, Australia",-37.8276418,144.9595223
437,448,448,POINT (145.15855971961776 -37.95482065),"3, Colonsay Road, Springvale, Melbourne, City of Greater Dandenong, Victoria, 3171, Australia",-37.95482065,145.15855971961776
438,449,449,POINT (144.9845539 -37.8607871),"St Kilda Road, St Kilda, Melbourne, City of Port Phillip, Victoria, 3182, Australia",-37.8607871,144.9845539
439,450,450,POINT (144.7623865 -37.5757052),"Mighty Road, Sunbury, Melbourne, City of Hume, Victoria, 3429, Australia",-37.5757052,144.7623865
440,451,451,POINT (144.840964 -37.7888195),"Union Street, Sunshine, Melbourne, City of Brimbank, Victoria, 3019, Australia",-37.7888195,144.840964
441,452,452,POINT (145.0545296 -37.7049398),"Plenty Road, Bundoora, Melbourne, City of Darebin, Victoria, 3083, Australia",-37.7049398,145.0545296
442,453,453,POINT (145.0503163 -37.7097113),"Galileo Gateway, Bundoora, Melbourne, City of Darebin, Victoria, 3086, Australia",-37.7097113,145.0503163
443,454,454,POINT (145.0551298 -37.7026046),"Boadle Road, Bundoora, Melbourne, City of Darebin, Victoria, 3083, Australia",-37.7026046,145.0551298
444,455,455,POINT (144.7780002 -37.7525476),"Cairnlea Drive, Cairnlea, Melbourne, City of Brimbank, Victoria, 3021, Australia",-37.7525476,144.7780002
445,456,456,POINT (145.0545986 -37.8851298),"Rosstown Road, Carnegie, Melbourne, City of Glen Eira, Victoria, 3145, Australia",-37.8851298,145.0545986
446,458,458,POINT (144.7349251 -37.7049611),"Conder Place, Caroline Springs, Melbourne, City of Melton, Victoria, 3336, Australia",-37.7049611,144.7349251
447,459,459,POINT (145.1728802 -38.0996015),"Hall Road, Carrum Downs, Melbourne, City of Frankston, Victoria, 3201, Australia",-38.0996015,145.1728802
448,460,460,POINT (145.0261139 -37.8840586),"Snowdon Avenue, Caulfield, Melbourne, City of Glen Eira, Victoria, 3162, Australia",-37.8840586,145.0261139
449,461,461,POINT (144.9798263 -37.879436),"88, Addison Street, Elwood, Melbourne, City of Port Phillip, Victoria, 3184, Australia",-37.879436,144.9798263
450,462,462,POINT (144.9870582 -37.8855587),"Vautier Street, Elwood, Melbourne, City of Port Phillip, Victoria, 3184, Australia",-37.8855587,144.9870582
451,463,463,POINT (145.0040151 -37.6237465),"Argus Esplanade, Epping, Melbourne, City of Whittlesea, Victoria, 3076, Australia",-37.6237465,145.0040151
452,464,464,POINT (144.8909458 -37.7461021),"Hoffmans Road, Essendon, Melbourne, City of Moonee Valley, Victoria, 3040, Australia",-37.7461021,144.8909458
453,465,465,POINT (144.9193855 -37.7469396),"Glass Street, Essendon, Melbourne, City of Moonee Valley, Victoria, 3040, Australia",-37.7469396,144.9193855
454,466,466,POINT (144.98037517153998 -37.79718725),"Artists Apartments, 150, Kerr Street, Fitzroy, Melbourne, City of Yarra, Victoria, 3065, Australia",-37.79718725,144.98037517153998
455,467,467,POINT (144.8885409 -37.7952801),"208, Gordon Street, Footscray, Melbourne, City of Maribyrnong, Victoria, 3011, Australia",-37.7952801,144.8885409
456,468,468,POINT (145.12474970388922 -38.14281025),"Clyde Street Mall, Frankston, Melbourne, City of Frankston, Victoria, 3199, Australia",-38.14281025,145.12474970388922
457,469,469,POINT (145.147195 -38.138728),"Hudson Avenue, Karingal, Frankston, Melbourne, City of Frankston, Victoria, 3199, Australia",-38.138728,145.147195
458,470,470,POINT (144.9064466 -37.6977155),"Moonee Boulevard, Glenroy, Melbourne, City of Merri-bek, Victoria, 3046, Australia",-37.6977155,144.9064466
459,471,471,POINT (144.9622688 -37.7428628),"Hudson Street, Coburg, Melbourne, City of Merri-bek, Victoria, 3058, Australia",-37.7428628,144.9622688
460,472,472,POINT (144.963553 -37.7516143),"Carron Street, Coburg, Melbourne, City of Merri-bek, Victoria, 3058, Australia",-37.7516143,144.963553
461,473,473,POINT (144.9738472 -37.7457489),"79, Harding Street, Coburg, Melbourne, City of Merri-bek, Victoria, 3058, Australia",-37.7457489,144.9738472
462,474,474,POINT (144.9922402 -37.803765),"Hoddle Street, Collingwood, Melbourne, City of Yarra, Victoria, 3067, Australia",-37.803765,144.9922402
463,475,475,POINT (144.8950944 -37.5892963),"Highlander Drive, Craigieburn, Melbourne, City of Hume, Victoria, 3064, Australia",-37.5892963,144.8950944
464,476,476,POINT (144.8953517 -37.5728003),"Gossia Avenue, Craigieburn, Melbourne, City of Hume, Victoria, 3064, Australia",-37.5728003,144.8953517
465,477,477,POINT (144.9396543 -37.5922512),"Rossdale Street, Craigieburn, Melbourne, City of Hume, Victoria, 3064, Australia",-37.5922512,144.9396543
466,478,478,POINT (144.9093746 -37.5840079),"Farrell Street, Craigieburn, Melbourne, City of Hume, Victoria, 3064, Australia",-37.5840079,144.9093746
467,479,479,POINT (145.2691148 -38.0819478),"Toirram Crescent, Cranbourne, Melbourne, City of Casey, Victoria, 3977, Australia",-38.0819478,145.2691148
468,480,480,POINT (145.2742555 -38.1080454),"Jillian Street, Cranbourne, Melbourne, City of Casey, Victoria, 3977, Australia",-38.1080454,145.2742555
469,481,481,POINT (145.09712373263886 -37.611839),"21, Villeroy Street, Riverdale On PlentyEstate, Mernda, Melbourne, City of Whittlesea, Victoria, 3754, Australia",-37.611839,145.09712373263886
470,482,482,POINT (145.0838789 -37.5897414),"Southdown Rise, Mernda Villages Estate, Mernda, Melbourne, City of Whittlesea, Victoria, 3755, Australia",-37.5897414,145.0838789
471,483,483,POINT (145.0822907 -37.5902336),"Reynolds Circuit, Mernda Villages Estate, Mernda, Melbourne, City of Whittlesea, Victoria, 3755, Australia",-37.5902336,145.0822907
472,484,484,POINT (145.0376935 -38.2447037),"Bentons Road, Mornington, Melbourne, Shire of Mornington Peninsula, Victoria, 3931, Australia",-38.2447037,145.0376935
473,485,485,POINT (145.1380154 -37.8908093),"1/32, Torroodun Street, Mount Waverley, Melbourne, City of Monash, Victoria, 3149, Australia",-37.8908093,145.1380154
474,486,486,POINT (145.1302191 -37.8812985),"2, Hakea Court, Mount Waverley, Melbourne, City of Monash, Victoria, 3149, Australia",-37.8812985,145.1302191
475,487,487,POINT (145.1866876 -37.9255081),"Selhurst Park Road, Waverley Park Estate, Mulgrave, Melbourne, City of Monash, Victoria, 3170, Australia",-37.9255081,145.1866876
476,488,488,POINT (144.8795431 -37.8441183),"Mirls Street, Newport, Melbourne, City of Hobsons Bay, Victoria, 3015, Australia",-37.8441183,144.8795431
477,489,489,POINT (144.8726852 -37.8452504),"Woods Street, Newport, Melbourne, City of Hobsons Bay, Victoria, 3015, Australia",-37.8452504,144.8726852
478,490,490,POINT (144.9491897354232 -37.79562095),"Royal Park Towers, 171, Flemington Road, North Melbourne, Melbourne, City of Melbourne, Victoria, 3051, Australia",-37.79562095,144.9491897354232
479,491,491,POINT (144.9913614 -37.7677665),"St Georges Road, Northcote, Melbourne, City of Darebin, Victoria, 3070, Australia",-37.7677665,144.9913614
480,492,492,POINT (144.9232294 -37.7679706),"Young Street, Moonee Ponds, Melbourne, City of Moonee Valley, Victoria, 3039, Australia",-37.7679706,144.9232294
481,493,493,POINT (145.1114305 -37.8912729),"Cash Grove, Mount Waverley, Melbourne, City of Monash, Victoria, 3166, Australia",-37.8912729,145.1114305
482,494,494,POINT (145.3087995 -38.0055085),"1, Louisa Court, Narre Warren, Melbourne, City of Casey, Victoria, 3805, Australia",-38.0055085,145.3087995
483,495,495,POINT (144.9454013 -37.7921789),"Flemington Road, North Melbourne, Melbourne, City of Melbourne, Victoria, 3051, Australia",-37.7921789,144.9454013
484,496,496,POINT (144.9433334 -37.7320159),"Gaffney Street, Pascoe Vale, Melbourne, City of Merri-bek, Victoria, 3044, Australia",-37.7320159,144.9433334
485,497,497,POINT (144.9385891 -37.8337294),"Farrell Street, Beacon Cove, Port Melbourne, Melbourne, City of Port Phillip, Victoria, 3207, Australia",-37.8337294,144.9385891
486,498,498,POINT (145.0138954 -37.7462477),"Bell Street, Preston, Melbourne, City of Darebin, Victoria, 3072, Australia",-37.7462477,145.0138954
487,499,499,POINT (145.0110898 -37.7498824),"Raglan Street, Preston, Melbourne, City of Darebin, Victoria, 3072, Australia",-37.7498824,145.0110898
488,500,500,POINT (144.96830269304957 -37.833033099999994),"88 Park Street, 88, Park Street, South Melbourne, Melbourne, City of Port Phillip, Victoria, 3205, Australia",-37.833033099999994,144.96830269304957
489,501,501,POINT (144.9698138 -37.834264),"Palmerston Crescent, South Melbourne, Melbourne, City of Port Phillip, Victoria, 3205, Australia",-37.834264,144.9698138
490,502,502,POINT (144.96393791047822 -37.82317765),"Australia 108, 70, Southbank Boulevard, Southbank, Melbourne, City of Melbourne, Victoria, 3006, Australia",-37.82317765,144.96393791047822
491,503,503,POINT (144.96268814468186 -37.82427405),"The Summit, 163, City Road, Southbank, Melbourne, City of Melbourne, Victoria, 3006, Australia",-37.82427405,144.96268814468186
492,504,504,POINT (144.9670995 -37.8304826),"Dodds Street, Southbank, Melbourne, City of Melbourne, Victoria, 3006, Australia",-37.8304826,144.9670995
493,505,505,POINT (144.9638548 -37.8246701),"Power Street, Southbank, Melbourne, City of Melbourne, Victoria, 3006, Australia",-37.8246701,144.9638548
494,506,506,POINT (144.95997799999998 -37.82646615),"241, City Road, Southbank, Melbourne, City of Melbourne, Victoria, 3006, Australia",-37.82646615,144.95997799999998
495,507,507,POINT (144.9633593 -37.8229812),"City Road, Southbank, Melbourne, City of Melbourne, Victoria, 3006, Australia",-37.8229812,144.9633593
496,508,508,POINT (145.0557002 -37.7033329),"1191, Plenty Road, Bundoora, Melbourne, City of Darebin, Victoria, 3083, Australia",-37.7033329,145.0557002
497,509,509,POINT (145.0581243 -37.8892644),"Shepparson Avenue, Carnegie, Melbourne, City of Glen Eira, Victoria, 3163, Australia",-37.8892644,145.0581243
498,510,510,POINT (145.055501 -37.8937631),"Truganini Road, Carnegie, Melbourne, City of Glen Eira, Victoria, 3163, Australia",-37.8937631,145.055501
499,511,511,POINT (145.1244778 -37.9117449),"Koonawarra Street, Clayton, Melbourne, City of Monash, Victoria, 3800, Australia",-37.9117449,145.1244778
500,512,512,POINT (145.1244778 -37.9117449),"Koonawarra Street, Clayton, Melbourne, City of Monash, Victoria, 3800, Australia",-37.9117449,145.1244778
501,513,513,POINT (145.1244778 -37.9117449),"Koonawarra Street, Clayton, Melbourne, City of Monash, Victoria, 3800, Australia",-37.9117449,145.1244778
502,514,514,POINT (144.7824069 -37.7121204),"McNicholl Way, Delahey, Melbourne, City of Brimbank, Victoria, 3037, Australia",-37.7121204,144.7824069
503,515,515,POINT (145.1324762 -38.1343283),"Orwil Street, Frankston, Melbourne, City of Frankston, Victoria, 3199, Australia",-38.1343283,145.1324762
504,516,516,POINT (144.915142 -37.7018669),"Pascoe Vale Road, Glenroy, Melbourne, City of Merri-bek, Victoria, 3046, Australia",-37.7018669,144.915142
505,517,517,POINT (144.9190669 -37.7025478),"Salisbury Street, Glenroy, Melbourne, City of Merri-bek, Victoria, 3046, Australia",-37.7025478,144.9190669
506,518,518,POINT (145.04887138430252 -37.76428375),"6, Studley Road, Ivanhoe East, Melbourne, City of Banyule, Victoria, 3079, Australia",-37.76428375,145.04887138430252
507,519,519,POINT (145.0582828 -37.6709019),"Avonmore Close, Mill Park, Melbourne, City of Whittlesea, Victoria, 3032, Australia",-37.6709019,145.0582828
508,520,520,POINT (144.900331 -37.583483),"Juscelina Drive, Craigieburn, Melbourne, City of Hume, Victoria, 3064, Australia",-37.583483,144.900331
509,521,521,POINT (144.9424288 -37.8205533),"888, Collins Street, Victoria Harbour, Docklands, Melbourne, City of Melbourne, Victoria, 3008, Australia",-37.8205533,144.9424288
510,522,522,POINT (144.9534162 -37.819236),"Collins Street, Yarra’s Edge, Docklands, Melbourne, City of Melbourne, Victoria, 3008, Australia",-37.819236,144.9534162
511,523,523,POINT (144.9923477 -37.8828292),"St Kilda Street, Elwood, Melbourne, City of Port Phillip, Victoria, 3184, Australia",-37.8828292,144.9923477
512,524,524,POINT (144.9171895 -37.7547779),"Mount Alexander Road, Essendon, Melbourne, City of Moonee Valley, Victoria, 3040, Australia",-37.7547779,144.9171895
513,525,525,POINT (144.7398349 -37.6862844),"Wattle Valley Drive, Bellevue Hill, Hillside, Melbourne, City of Melton, Victoria, 3037, Australia",-37.6862844,144.7398349
514,526,526,POINT (144.94074550225105 -37.78968255),"33, Racecourse Road, North Melbourne, Melbourne, City of Melbourne, Victoria, 3031, Australia",-37.78968255,144.94074550225105
515,527,527,POINT (144.7199973 -37.8947404),"Bevan Court, Innisfail, Point Cook, Melbourne, City of Wyndham, Victoria, 3030, Australia",-37.8947404,144.7199973
516,528,528,POINT (145.0011541 -37.7369373),"Clinch Avenue, Preston, Melbourne, City of Darebin, Victoria, 3072, Australia",-37.7369373,145.0011541
517,529,529,POINT (144.6691878 -37.880613),"Rosella Avenue, Werribee, Melbourne, City of Wyndham, Victoria, 3030, Australia",-37.880613,144.6691878
518,530,530,POINT (144.6157984 -37.8637807),"Chaparral Street, Savana, Wyndham Vale, Melbourne, City of Wyndham, Victoria, 3024, Australia",-37.8637807,144.6157984
519,531,531,POINT (144.99974 -37.8095167),"Princes Street, Abbotsford, Melbourne, City of Yarra, Victoria, 3067, Australia",-37.8095167,144.99974
520,532,532,POINT (144.9795938 -38.3337727),"Beachurst Avenue, Dromana, Melbourne, Shire of Mornington Peninsula, Victoria, 3936, Australia",-38.3337727,144.9795938
521,533,533,POINT (144.89910358097765 -37.800253549999994),"Cui’s Chinese Therapy, 98, Nicholson Street, Footscray, Melbourne, City of Maribyrnong, Victoria, 3011, Australia",-37.800253549999994,144.89910358097765
522,534,534,POINT (144.9992229398029 -37.8236806),"McGrath Court, Richmond, Melbourne, City of Yarra, Victoria, 3121, Australia",-37.8236806,144.9992229398029
523,535,535,POINT (144.9948425 -37.8418407),"Arthur Street, South Yarra, Melbourne, City of Stonnington, Victoria, 3141, Australia",-37.8418407,144.9948425
524,536,536,POINT (144.9424288 -37.8205533),"888, Collins Street, Victoria Harbour, Docklands, Melbourne, City of Melbourne, Victoria, 3008, Australia",-37.8205533,144.9424288
525,537,537,POINT (144.968021 -37.7413992),"Bell Street, Coburg, Melbourne, City of Merri-bek, Victoria, 3058, Australia",-37.7413992,144.968021
526,538,538,POINT (145.3658609 -38.0273002),"Gavinton Place, Berwick, Melbourne, City of Casey, Victoria, 3807, Australia",-38.0273002,145.3658609
527,539,539,POINT (144.9629992 -37.7613287),"William Street, Brunswick, Melbourne, City of Merri-bek, Victoria, 3056, Australia",-37.7613287,144.9629992
528,540,540,POINT (144.9608324 -37.7615586),"9, Florence Street, Brunswick, Melbourne, City of Merri-bek, Victoria, 3056, Australia",-37.7615586,144.9608324
529,541,541,POINT (144.9534162 -37.819236),"Collins Street, Yarra’s Edge, Docklands, Melbourne, City of Melbourne, Victoria, 3008, Australia",-37.819236,144.9534162
530,542,542,POINT (144.8956893 -37.7713463),"Van Ness Avenue, Maribyrnong, Melbourne, City of Maribyrnong, Victoria, 3032, Australia",-37.7713463,144.8956893
531,543,543,POINT (145.0224829 -37.7586702),"Mansfield Street, Thornbury, Melbourne, City of Darebin, Victoria, 3071, Australia",-37.7586702,145.0224829
532,544,544,POINT (144.9965233 -37.8075318),"56, Nicholson Street, Abbotsford, Melbourne, City of Yarra, Victoria, 3067, Australia",-37.8075318,144.9965233
533,545,545,POINT (144.99866919807693 -37.797944599999994),"Trenerry Mews, 80–82, Trenerry Crescent, Abbotsford, Melbourne, City of Yarra, Victoria, 3067, Australia",-37.797944599999994,144.99866919807693
534,546,546,POINT (144.9633593 -37.8229812),"City Road, Southbank, Melbourne, City of Melbourne, Victoria, 3006, Australia",-37.8229812,144.9633593
535,547,547,POINT (144.9594693379729 -37.82694215),"Experience Platinum Hotel Apartments, 45, Clarke Street, Southbank, Melbourne, City of Melbourne, Victoria, 3205, Australia",-37.82694215,144.9594693379729
536,548,548,POINT (144.9620891019552 -37.825469600000005),"Epic Apartments, 118, Kavanagh Street, Southbank, Melbourne, City of Melbourne, Victoria, 3006, Australia",-37.825469600000005,144.9620891019552
537,549,549,POINT (144.96165600047658 -37.825163950000004),"Southbank Central, 1, Balston Street, Southbank, Melbourne, City of Melbourne, Victoria, 3006, Australia",-37.825163950000004,144.96165600047658
538,550,550,POINT (144.96317 -37.8260731),"Bale Circuit, Southbank, Melbourne, City of Melbourne, Victoria, 3006, Australia",-37.8260731,144.96317
539,551,551,POINT (144.9602667 -37.8255566),"Queens Bridge Street, Southbank, Melbourne, City of Melbourne, Victoria, 3006, Australia",-37.8255566,144.9602667
540,552,552,POINT (144.96393791047822 -37.82317765),"Australia 108, 70, Southbank Boulevard, Southbank, Melbourne, City of Melbourne, Victoria, 3006, Australia",-37.82317765,144.96393791047822
541,553,553,POINT (144.9692605 -37.8304538),"Dorcas Street, Southbank, Melbourne, City of Melbourne, Victoria, 3006, Australia",-37.8304538,144.9692605
542,554,554,POINT (144.9594693379729 -37.82694215),"Experience Platinum Hotel Apartments, 45, Clarke Street, Southbank, Melbourne, City of Melbourne, Victoria, 3205, Australia",-37.82694215,144.9594693379729
543,555,555,POINT (144.96393791047822 -37.82317765),"Australia 108, 70, Southbank Boulevard, Southbank, Melbourne, City of Melbourne, Victoria, 3006, Australia",-37.82317765,144.96393791047822
544,556,556,POINT (144.9662497 -37.8254083),"Café Godot, 152, Sturt Street, Southbank, Melbourne, City of Melbourne, Victoria, 3006, Australia",-37.8254083,144.9662497
545,557,557,POINT (144.9620891019552 -37.825469600000005),"Epic Apartments, 118, Kavanagh Street, Southbank, Melbourne, City of Melbourne, Victoria, 3006, Australia",-37.825469600000005,144.9620891019552
546,558,558,POINT (144.8007332 -37.7487189),"Finn Street, St.A, St Albans, Melbourne, City of Brimbank, Victoria, 3021, Australia",-37.7487189,144.8007332
547,560,560,POINT (144.6151286 -37.871641),"Laurimar Grove, Gem, Wyndham Vale, Melbourne, City of Wyndham, Victoria, 3024, Australia",-37.871641,144.6151286
548,561,561,POINT (145.1878466 -37.9306502),"28, Windy Hill Drive, Waverley Park Estate, Mulgrave, Melbourne, City of Monash, Victoria, 3170, Australia",-37.9306502,145.1878466
549,562,562,POINT (145.0060303 -37.7328404),"Lunette Avenue, Preston, Melbourne, City of Darebin, Victoria, 3072, Australia",-37.7328404,145.0060303
550,563,563,POINT (145.130544 -38.0984886),"Portland Parade, Seaford, Melbourne, City of Frankston, Victoria, 3298, Australia",-38.0984886,145.130544
551,564,564,POINT (144.9595223 -37.8276418),"Hancock Street, Southbank, Melbourne, City of Melbourne, Victoria, 3006, Australia",-37.8276418,144.9595223
552,565,565,POINT (144.8110445 -37.8676543),"Curlew Avenue, Altona, Melbourne, City of Hobsons Bay, Victoria, 3018, Australia",-37.8676543,144.8110445
553,566,566,POINT (144.9987455 -37.8897323),"Brickwood Street, Brighton, Melbourne, City of Bayside, Victoria, 3186, Australia",-37.8897323,144.9987455
554,567,567,POINT (144.9850742 -37.8021834),"Stanley Street, Collingwood, Melbourne, City of Yarra, Victoria, 3066, Australia",-37.8021834,144.9850742
555,568,568,POINT (144.9200983 -37.7068086),"Wheatsheaf Road, Glenroy, Melbourne, City of Merri-bek, Victoria, 3046, Australia",-37.7068086,144.9200983
556,569,569,POINT (145.1498232 -37.9921859),"Hardy Loop, Keysborough, Melbourne, City of Greater Dandenong, Victoria, 3172, Australia",-37.9921859,145.1498232
557,570,570,POINT (144.986577 -37.8295113),"Walsh Street, South Yarra, Melbourne, City of Melbourne, Victoria, 3141, Australia",-37.8295113,144.986577
558,571,571,POINT (144.7247101 -37.5978908),"Belleview Drive, Sunbury, Melbourne, City of Hume, Victoria, 3429, Australia",-37.5978908,144.7247101
559,572,572,POINT (144.9953801 -37.8437538),"Bray Street, South Yarra, Melbourne, City of Stonnington, Victoria, 3141, Australia",-37.8437538,144.9953801
560,573,573,POINT (145.0138185 -37.8116124),"Acacia Place, Abbotsford, Melbourne, City of Yarra, Victoria, 3121, Australia",-37.8116124,145.0138185
561,574,574,POINT (144.9775167 -38.4660249),"Punchbowl Road, Flinders, Melbourne, Shire of Mornington Peninsula, Victoria, Australia",-38.4660249,144.9775167
562,575,575,POINT (145.00008261625504 -37.930246999999994),"10, Margarita Street, Hampton, Melbourne, City of Bayside, Victoria, 3187, Australia",-37.930246999999994,145.00008261625504
563,576,576,POINT (144.933099 -37.6878621),"Gerbert Street, Broadmeadows, Melbourne, City of Hume, Victoria, 3047, Australia",-37.6878621,144.933099
564,577,577,POINT (144.9516963 -37.7582549),"Tinning Street, Brunswick, Melbourne, City of Merri-bek, Victoria, 3056, Australia",-37.7582549,144.9516963
565,578,578,POINT (145.0584603 -37.6973744),"21–35, Plenty Road, Bundoora, Melbourne, City of Whittlesea, Victoria, 3083, Australia",-37.6973744,145.0584603
566,579,579,POINT (144.7330829 -37.7064715),"Klippel Way, Caroline Springs, Melbourne, City of Melton, Victoria, 3336, Australia",-37.7064715,144.7330829
567,581,581,POINT (144.9705328 -37.7379547),"Stockade Avenue, Coburg, Melbourne, City of Merri-bek, Victoria, 3058, Australia",-37.7379547,144.9705328
568,582,582,POINT (144.9318465 -37.5757924),"Windrock Avenue, Craigieburn, Melbourne, City of Hume, Victoria, 3064, Australia",-37.5757924,144.9318465
569,583,583,POINT (144.9329139 -37.6046049),"Langdon Crescent, Craigieburn, Melbourne, City of Hume, Victoria, 3064, Australia",-37.6046049,144.9329139
570,584,584,POINT (145.2853364 -38.1101753),"Codrington Street, Cranbourne, Melbourne, City of Casey, Victoria, 3977, Australia",-38.1101753,145.2853364
571,585,585,POINT (144.9048474 -37.7960605),"19, Stirling Street, Footscray, Melbourne, City of Maribyrnong, Victoria, 3011, Australia",-37.7960605,144.9048474
572,586,586,POINT (144.8848818 -37.7997436),"Beaurepaire Parade, Footscray, Melbourne, City of Maribyrnong, Victoria, 3011, Australia",-37.7997436,144.8848818
573,587,587,POINT (145.1377271 -38.144038),"Addicott Street, Frankston, Melbourne, City of Frankston, Victoria, 3199, Australia",-38.144038,145.1377271
574,588,588,POINT (145.1375604 -38.1553298),"Lardner Road, Frankston, Melbourne, City of Frankston, Victoria, 3199, Australia",-38.1553298,145.1375604
575,589,589,POINT (144.9197626 -37.704225),"Murrell Street, Glenroy, Melbourne, City of Merri-bek, Victoria, 3046, Australia",-37.704225,144.9197626
576,591,591,POINT (144.9115059616965 -37.71126165),"40, Kennedy Street, Glenroy, Melbourne, City of Merri-bek, Victoria, 3046, Australia",-37.71126165,144.9115059616965
577,592,592,POINT (144.9363218 -37.7046158),"Valencia Street, Glenroy, Melbourne, City of Merri-bek, Victoria, 3046, Australia",-37.7046158,144.9363218
578,593,593,POINT (144.9374985 -37.7110709),"Truscott Street, Hadfield, Melbourne, City of Merri-bek, Victoria, 3046, Australia",-37.7110709,144.9374985
579,594,594,POINT (145.0966423 -37.7058267),"McDowell Street, Greensborough, Melbourne, City of Banyule, Victoria, 3088, Australia",-37.7058267,145.0966423
580,595,595,POINT (145.0966819 -37.7038253),"166, Grimshaw Street, Greensborough, Melbourne, City of Banyule, Victoria, 3088, Australia",-37.7038253,145.0966819
581,596,596,POINT (145.2197754 -37.9804385),"Robert Street, Dandenong, Melbourne, City of Greater Dandenong, Victoria, 3802, Australia",-37.9804385,145.2197754
582,598,598,POINT (144.7178147 -37.6242201),"Old Calder Highway, Diggers Rest, Melbourne, City of Melton, Victoria, 3427, Australia",-37.6242201,144.7178147
583,599,599,POINT (144.9449635 -37.8149632),"La Trobe Street, Docklands, Melbourne, City of Melbourne, Victoria, 3008, Australia",-37.8149632,144.9449635
584,600,600,POINT (145.1249711475241 -37.615155849999994),"39, Tata Way, Riverstone Estate, Doreen, Melbourne, City of Whittlesea, Victoria, 3754, Australia",-37.615155849999994,145.1249711475241
585,601,601,POINT (144.988957 -37.8104284),"Simpson Street, East Melbourne, Melbourne, City of Melbourne, Victoria, 3002, Australia",-37.8104284,144.988957
586,602,602,POINT (144.9923128 -37.8823053),"Tennyson Street, Elwood, Melbourne, City of Port Phillip, Victoria, 3184, Australia",-37.8823053,144.9923128
587,603,603,POINT (144.9823241 -37.8732588),"Dickens Street, Elwood, Melbourne, City of Port Phillip, Victoria, 3182, Australia",-37.8732588,144.9823241
588,604,604,POINT (144.9158844 -37.7569343),"Sherbourne Street, Essendon, Melbourne, City of Moonee Valley, Victoria, 3040, Australia",-37.7569343,144.9158844
589,605,605,POINT (144.9676976 -37.7155378),"Esther Court, Fawkner, Melbourne, City of Merri-bek, Victoria, 3060, Australia",-37.7155378,144.9676976
590,606,606,POINT (145.0721981 -37.6025833),"Marsala Way, Wellington Rise, Mernda, Melbourne, City of Whittlesea, Victoria, 3752, Australia",-37.6025833,145.0721981
591,607,607,POINT (145.051768 -37.6713555),"Appletree Drive, Mill Park, Melbourne, City of Whittlesea, Victoria, 3032, Australia",-37.6713555,145.051768
592,608,608,POINT (145.0515829 -37.6736099),"Holly Close, Mill Park, Melbourne, City of Whittlesea, Victoria, 3032, Australia",-37.6736099,145.0515829
593,609,609,POINT (145.0715192 -37.655386),"Stillman Drive, Mill Park, Melbourne, City of Whittlesea, Victoria, 3032, Australia",-37.655386,145.0715192
594,610,610,POINT (145.0799042 -37.6527167),"Oleander Drive, Mill Park, Melbourne, City of Whittlesea, Victoria, 3032, Australia",-37.6527167,145.0799042
595,611,611,POINT (145.0607238 -37.6678735),"Betula Avenue, Mill Park, Melbourne, City of Whittlesea, Victoria, 3032, Australia",-37.6678735,145.0607238
596,612,612,POINT (144.96460395433735 -37.82170615),"Eureka Tower, 7, Riverside Quay, Southbank, Melbourne, City of Melbourne, Victoria, 3006, Australia",-37.82170615,144.96460395433735
597,613,613,POINT (145.0494598 -37.6552422),"Friendship Avenue, Mill Park, Melbourne, City of Whittlesea, Victoria, 3032, Australia",-37.6552422,145.0494598
598,614,614,POINT (145.0313766 -38.2400033),"Seaton Road, Mornington, Melbourne, Shire of Mornington Peninsula, Victoria, 3931, Australia",-38.2400033,145.0313766
599,615,615,POINT (145.120928 -37.8612561),"Monica Close, Mount Waverley, Melbourne, City of Monash, Victoria, 3125, Australia",-37.8612561,145.120928
600,616,616,POINT (145.1112803 -37.8920688),"Carrol Grove, Mount Waverley, Melbourne, City of Monash, Victoria, 3166, Australia",-37.8920688,145.1112803
601,617,617,POINT (144.946961 -37.79576615),"454, Abbotsford Street, North Melbourne, Melbourne, City of Melbourne, Victoria, 3051, Australia",-37.79576615,144.946961
602,618,618,POINT (145.0095238 -37.7840248),"Heidelberg Road, Northcote, Melbourne, City of Darebin, Victoria, 3070, Australia",-37.7840248,145.0095238
603,619,619,POINT (144.9372887 -37.738051),"Cumberland Road, Pascoe Vale South, Melbourne, City of Merri-bek, Victoria, 3044, Australia",-37.738051,144.9372887
604,621,621,POINT (145.0125402 -37.8241111),"Bellevue Street, Richmond, Melbourne, City of Yarra, Victoria, 3121, Australia",-37.8241111,145.0125402
605,622,622,POINT (144.8055625 -37.73658905),"3, Walter Street, St Albans, Melbourne, City of Brimbank, Victoria, 3021, Australia",-37.73658905,144.8055625
606,623,623,POINT (144.878831 -37.7070485),"Broadmeadows Road, Tullamarine, Melbourne, City of Hume, Victoria, 3045, Australia",-37.7070485,144.878831
607,624,624,POINT (144.8880001 -37.7097261),"Melrose Drive, Tullamarine, Melbourne, City of Merri-bek, Victoria, 3043, Australia",-37.7097261,144.8880001
608,625,625,POINT (144.6534582 -37.9095198),"Puli Street, Werribee, Melbourne, City of Wyndham, Victoria, 3030, Australia",-37.9095198,144.6534582
609,626,626,POINT (144.675719 -37.8791491),"Silvereye Crescent, Werribee, Melbourne, City of Wyndham, Victoria, 3030, Australia",-37.8791491,144.675719
610,627,627,POINT (144.6315363 -37.8881964),"Camden Way, Wyndham Vale, Melbourne, City of Wyndham, Victoria, 3024, Australia",-37.8881964,144.6315363
611,628,628,POINT (144.9638512 -37.7553969),"Moreland Road, Coburg, Melbourne, City of Merri-bek, Victoria, 3058, Australia",-37.7553969,144.9638512
612,630,630,POINT (144.5852038 -37.685605),"Henry Street, Melton, Melbourne, City of Melton, Victoria, 3337, Australia",-37.685605,144.5852038
613,631,631,POINT (145.0805196 -37.6062666),"Regent Street, Mernda, Melbourne, City of Whittlesea, Victoria, 3752, Australia",-37.6062666,145.0805196
614,632,632,POINT (145.3050524 -38.0098058),"9, Columbia Road, Narre Warren, Melbourne, City of Casey, Victoria, 3805, Australia",-38.0098058,145.3050524
615,633,633,POINT (144.7740722 -37.9119984),"Brimble Street, Saltwater Coast, Point Cook, Melbourne, City of Wyndham, Victoria, 3030, Australia",-37.9119984,144.7740722
616,634,634,POINT (145.0007563 -37.7239984),"Broughton Avenue, Reservoir, Melbourne, City of Darebin, Victoria, 3073, Australia",-37.7239984,145.0007563
617,635,635,POINT (145.12787341790255 -38.11115015),"25, Mahoney Crescent, Seaford, Melbourne, City of Frankston, Victoria, 3298, Australia",-38.11115015,145.12787341790255
618,636,636,POINT (145.068428 -37.6364912),"Darius Terrace, South Morang, Melbourne, City of Whittlesea, Victoria, 3752, Australia",-37.6364912,145.068428
619,637,637,POINT (145.0883326 -37.6379984),"Nighthawk Boulevard, South Morang, Melbourne, City of Whittlesea, Victoria, 3752, Australia",-37.6379984,145.0883326
620,638,638,POINT (144.9633593 -37.8229812),"City Road, Southbank, Melbourne, City of Melbourne, Victoria, 3006, Australia",-37.8229812,144.9633593
621,639,639,POINT (144.96165600047658 -37.825163950000004),"Southbank Central, 1, Balston Street, Southbank, Melbourne, City of Melbourne, Victoria, 3006, Australia",-37.825163950000004,144.96165600047658
622,640,640,POINT (144.9576584 -37.8266468),"Haig Street, Southbank, Melbourne, City of Melbourne, Victoria, 3006, Australia",-37.8266468,144.9576584
623,641,641,POINT (144.9126032 -37.6995429),"Becket Street South, Glenroy, Melbourne, City of Merri-bek, Victoria, 3046, Australia",-37.6995429,144.9126032
624,642,642,POINT (144.689172 -37.8696111),"Hunter Avenue, Mossfiel, Hoppers Crossing, Melbourne, City of Wyndham, Victoria, 3029, Australia",-37.8696111,144.689172
625,643,643,POINT (145.0474269335283 -37.77019465),"86, Marshall Street, Ivanhoe, Melbourne, City of Banyule, Victoria, 3079, Australia",-37.77019465,145.0474269335283
626,644,644,POINT (144.7751357 -37.859691),"Charlesworth Street, Laverton, Melbourne, City of Hobsons Bay, Victoria, 3028, Australia",-37.859691,144.7751357
