census_year,block_id,property_id,base_property_id,building_address,clue_small_area,business_address,trading_name,industry_anzsic4_code,industry_anzsic4_description,seating_type,number_of_seats,longitude,latitude,location
2021,203,103123,103123,258 Elgin Street CARLTON VIC 3053,Carlton,258 Elgin Street CARLTON VIC 3053,Cafe Sua Da,4511,Cafes and Restaurants,Seats - Outdoor,6,144.96553,-37.79671,"{'lon': 144.96553, 'lat': -37.79671}"
2021,204,109359,109359,College Square on Swanston 768-804 Swanston Street CARLTON VIC 3053,Carlton,804 Swanston Street CARLTON VIC 3053,The Longing Flavour,4511,Cafes and Restaurants,Seats - Indoor,50,144.96517,-37.79783,"{'lon': 144.96517, 'lat': -37.79783}"
2021,205,573289,573289,Royal Dental Hospital 720 Swanston Street CARLTON VIC 3053,Carlton,Part Ground 720 Swanston Street CARLTON VIC 3053,Toothpicks Cafe,4511,Cafes and Restaurants,Seats - Outdoor,36,144.96489,-37.79946,"{'lon': 144.96489, 'lat': -37.79946}"
2021,205,573290,573290,740-750 Swanston Street CARLTON VIC 3053,Carlton,740 Swanston Street CARLTON VIC 3053,E Dumpling,4511,Cafes and Restaurants,Seats - Indoor,32,144.96477,-37.799,"{'lon': 144.96477, 'lat': -37.799}"
2021,206,103694,103694,235-237 Faraday Street CARLTON VIC 3053,Carlton,Part 237 Faraday Street CARLTON VIC 3053,New York Minute,4511,Cafes and Restaurants,Seats - Indoor,20,144.9663,-37.79881,"{'lon': 144.9663, 'lat': -37.79881}"
2021,206,106113,106113,205-207 Lygon Street CARLTON VIC 3053,Carlton,88 Grattan Street CARLTON VIC 3053,Dumpling ADA,4511,Cafes and Restaurants,Seats - Outdoor,16,144.96655,-37.80046,"{'lon': 144.96655, 'lat': -37.80046}"
2021,206,106113,106113,205-207 Lygon Street CARLTON VIC 3053,Carlton,88 Grattan Street CARLTON VIC 3053,Dumpling ADA,4511,Cafes and Restaurants,Seats - Indoor,35,144.96655,-37.80046,"{'lon': 144.96655, 'lat': -37.80046}"
2021,206,106118,106118,219-221 Lygon Street CARLTON VIC 3053,Carlton,219-221 Lygon Street CARLTON VIC 3053,Papa Gino's Pizza Restaurant,4511,Cafes and Restaurants,Seats - Indoor,100,144.96672,-37.80019,"{'lon': 144.96672, 'lat': -37.80019}"
2021,206,106120,106120,225-229 Lygon Street CARLTON VIC 3053,Carlton,225-229 Lygon Street CARLTON VIC 3053,Cafe Corretto,4511,Cafes and Restaurants,Seats - Outdoor,55,144.96674,-37.80005,"{'lon': 144.96674, 'lat': -37.80005}"
2021,206,106130,106130,255-257 Lygon Street CARLTON VIC 3053,Carlton,255 Lygon Street CARLTON VIC 3053,University Cafe,4511,Cafes and Restaurants,Seats - Outdoor,56,144.96684,-37.79948,"{'lon': 144.96684, 'lat': -37.79948}"
2021,206,106130,106130,255-257 Lygon Street CARLTON VIC 3053,Carlton,255 Lygon Street CARLTON VIC 3053,University Cafe,4511,Cafes and Restaurants,Seats - Indoor,120,144.96684,-37.79948,"{'lon': 144.96684, 'lat': -37.79948}"
2021,207,106142,106142,291-299 Lygon Street CARLTON VIC 3053,Carlton,293 Lygon Street CARLTON VIC 3053,King & Godfree,4511,Cafes and Restaurants,Seats - Indoor,200,144.96704,-37.79839,"{'lon': 144.96704, 'lat': -37.79839}"
2021,207,106144,106144,305 Lygon Street CARLTON VIC 3053,Carlton,305 Lygon Street CARLTON VIC 3053,Tiamo 2,4511,Cafes and Restaurants,Seats - Outdoor,29,144.96708,-37.79818,"{'lon': 144.96708, 'lat': -37.79818}"
2021,207,106149,106149,323 Lygon Street CARLTON VIC 3053,Carlton,323 Lygon Street CARLTON VIC 3053,Milk The Cow,4511,Cafes and Restaurants,Seats - Indoor,80,144.96713,-37.79777,"{'lon': 144.96713, 'lat': -37.79777}"
2021,207,106152,106152,329 Lygon Street CARLTON VIC 3053,Carlton,329 Lygon Street CARLTON VIC 3053,Heartattack and Vine,4511,Cafes and Restaurants,Seats - Outdoor,16,144.96715,-37.79764,"{'lon': 144.96715, 'lat': -37.79764}"
2021,207,106152,106152,329 Lygon Street CARLTON VIC 3053,Carlton,329 Lygon Street CARLTON VIC 3053,Heartattack and Vine,4511,Cafes and Restaurants,Seats - Indoor,35,144.96715,-37.79764,"{'lon': 144.96715, 'lat': -37.79764}"
2021,207,106153,106153,331-335 Lygon Street CARLTON VIC 3053,Carlton,331-335 Lygon Street CARLTON VIC 3053,Jimmy Watsons,4511,Cafes and Restaurants,Seats - Indoor,120,144.96717,-37.79751,"{'lon': 144.96717, 'lat': -37.79751}"
2021,207,106154,106154,337-343 Lygon Street CARLTON VIC 3053,Carlton,341-343 Lygon Street CARLTON VIC 3053,Intersection Cafe,4511,Cafes and Restaurants,Seats - Indoor,39,144.96723,-37.79735,"{'lon': 144.96723, 'lat': -37.79735}"
2021,212,111336,106170,South Tower No.1 College Square Apartments 570 Lygon Street CARLTON VIC 3053,Carlton,"Unit 1011, 570 Lygon Street CARLTON VIC 3053",Chong Quing,4511,Cafes and Restaurants,Seats - Indoor,66,144.96905,-37.79314,"{'lon': 144.96905, 'lat': -37.79314}"
2021,212,633373,633373,497-513 Rathdowne Street CARLTON VIC 3053,Carlton,Part Ground 497-513 Rathdowne Street CARLTON VIC 3053,Rathdowne & Reeves Cafe,4511,Cafes and Restaurants,Seats - Outdoor,22,144.97077,-37.79366,"{'lon': 144.97077, 'lat': -37.79366}"
2021,214,103134,103134,192 Elgin Street CARLTON VIC 3053,Carlton,192 Elgin Street CARLTON VIC 3053,Curry in Carlton,4512,Takeaway Food Services,Seats - Indoor,20,144.96816,-37.79698,"{'lon': 144.96816, 'lat': -37.79698}"
2021,214,103134,103134,192 Elgin Street CARLTON VIC 3053,Carlton,192 Elgin Street CARLTON VIC 3053,Curry in Carlton,4512,Takeaway Food Services,Seats - Outdoor,6,144.96816,-37.79698,"{'lon': 144.96816, 'lat': -37.79698}"
2021,214,106186,106186,414-422 Lygon Street CARLTON VIC 3053,Carlton,414-422 Lygon Street CARLTON VIC 3053,Green Man's Arms,4520,"Pubs, Taverns and Bars",Seats - Indoor,40,144.96781,-37.79695,"{'lon': 144.96781, 'lat': -37.79695}"
2021,215,103144,103144,138-144 Elgin Street CARLTON VIC 3053,Carlton,144 Elgin Street CARLTON VIC 3053,Campos Coffee,4511,Cafes and Restaurants,Seats - Indoor,36,144.96981,-37.79715,"{'lon': 144.96981, 'lat': -37.79715}"
2021,217,102686,102686,313-315 Drummond Street CARLTON VIC 3053,Carlton,313-315 Drummond Street CARLTON VIC 3053,Masani Italian Dining & Terrace,4511,Cafes and Restaurants,Seats - Outdoor,30,144.96849,-37.79838,"{'lon': 144.96849, 'lat': -37.79838}"
2021,217,103102,103102,171-175 Elgin Street CARLTON VIC 3053,Carlton,171-175 Elgin Street CARLTON VIC 3053,The Shaw Davey Slum,4511,Cafes and Restaurants,Seats - Outdoor,20,144.96871,-37.79751,"{'lon': 144.96871, 'lat': -37.79751}"
2021,217,103107,103107,189 Elgin Street CARLTON VIC 3053,Carlton,"Shop 1, Ground 189 Elgin Street CARLTON VIC 3053",The Heart of Carlton,4512,Takeaway Food Services,Seats - Indoor,10,144.96821,-37.79746,"{'lon': 144.96821, 'lat': -37.79746}"
2021,217,103703,103703,198-204 Faraday Street CARLTON VIC 3053,Carlton,Ground 198-204 Faraday Street CARLTON VIC 3053,Criniti's Southern Italian Cuisine,4511,Cafes and Restaurants,Seats - Outdoor,86,144.96784,-37.79851,"{'lon': 144.96784, 'lat': -37.79851}"
2021,217,103703,103703,198-204 Faraday Street CARLTON VIC 3053,Carlton,Ground 198-204 Faraday Street CARLTON VIC 3053,Criniti's Southern Italian Cuisine,4511,Cafes and Restaurants,Seats - Indoor,110,144.96784,-37.79851,"{'lon': 144.96784, 'lat': -37.79851}"
2021,217,103704,103704,194-196 Faraday Street CARLTON VIC 3053,Carlton,Ground 194-196 Faraday Street CARLTON VIC 3053,Yo-Chi,4511,Cafes and Restaurants,Seats - Outdoor,20,144.96802,-37.79844,"{'lon': 144.96802, 'lat': -37.79844}"
2021,217,103710,103710,176-178 Faraday Street CARLTON VIC 3053,Carlton,Part 178 Faraday Street CARLTON VIC 3053,Market Lane Coffee,4512,Takeaway Food Services,Seats - Indoor,2,144.96849,-37.79857,"{'lon': 144.96849, 'lat': -37.79857}"
2021,217,103711,103711,172-174 Faraday Street CARLTON VIC 3053,Carlton,Ground 172-174 Faraday Street CARLTON VIC 3053,The Carlton Wine Room,4511,Cafes and Restaurants,Seats - Outdoor,20,144.96859,-37.79858,"{'lon': 144.96859, 'lat': -37.79858}"
2021,217,106189,106189,398-400 Lygon Street CARLTON VIC 3053,Carlton,400 Lygon Street CARLTON VIC 3053,Trotters Bistro,4511,Cafes and Restaurants,Seats - Indoor,125,144.96776,-37.79763,"{'lon': 144.96776, 'lat': -37.79763}"
2021,217,106193,106193,368-386 Lygon Street CARLTON VIC 3053,Carlton,368-384 Lygon Street CARLTON VIC 3053,Cinema Nova,5513,Motion Picture Exhibition,Seats - Indoor,30,144.96815,-37.79804,"{'lon': 144.96815, 'lat': -37.79804}"
2021,217,106195,106195,364 Lygon Street CARLTON VIC 3053,Carlton,364 Lygon Street CARLTON VIC 3053,Sea salt kitchen,4511,Cafes and Restaurants,Seats - Indoor,43,144.96764,-37.79828,"{'lon': 144.96764, 'lat': -37.79828}"
2021,218,106203,106203,334-336 Lygon Street CARLTON VIC 3053,Carlton,334 Lygon Street CARLTON VIC 3053,Lavezzi Gelateria,4512,Takeaway Food Services,Seats - Indoor,4,144.96749,-37.79916,"{'lon': 144.96749, 'lat': -37.79916}"
2021,218,106206,106206,326-328 Lygon Street CARLTON VIC 3053,Carlton,Gnd & Flr1 326 Lygon Street CARLTON VIC 3053,DOC Espresso,4511,Cafes and Restaurants,Seats - Outdoor,60,144.96747,-37.79932,"{'lon': 144.96747, 'lat': -37.79932}"
2021,218,106215,106215,298 Lygon Street CARLTON VIC 3053,Carlton,298 Lygon Street CARLTON VIC 3053,Carlton Yacht Club Bar,4520,"Pubs, Taverns and Bars",Seats - Outdoor,40,144.96738,-37.79999,"{'lon': 144.96738, 'lat': -37.79999}"
2021,219,108188,108188,319-323 Rathdowne Street CARLTON VIC 3053,Carlton,323 Rathdowne Street CARLTON VIC 3053,East Imperial,4511,Cafes and Restaurants,Seats - Indoor,100,144.96988,-37.79918,"{'lon': 144.96988, 'lat': -37.79918}"
2021,224,108247,108247,114-116 Rathdowne Street CARLTON VIC 3053,Carlton,114-116 Rathdowne Street CARLTON VIC 3053,Paris Go Bistro,4511,Cafes and Restaurants,Seats - Indoor,50,144.97088,-37.79696,"{'lon': 144.97088, 'lat': -37.79696}"
2021,225,108238,108238,154-156 Rathdowne Street CARLTON VIC 3053,Carlton,154-156 Rathdowne Street CARLTON VIC 3053,Ziyka Pizza,4512,Takeaway Food Services,Seats - Indoor,10,144.97107,-37.79586,"{'lon': 144.97107, 'lat': -37.79586}"
2021,225,108239,108239,138-150 Rathdowne Street CARLTON VIC 3053,Carlton,144-146 Rathdowne Street CARLTON VIC 3053,Ziyka,4511,Cafes and Restaurants,Seats - Indoor,80,144.97104,-37.79605,"{'lon': 144.97104, 'lat': -37.79605}"
2021,225,108239,108239,138-150 Rathdowne Street CARLTON VIC 3053,Carlton,138B Rathdowne Street CARLTON VIC 3053,CHAMMAN,4512,Takeaway Food Services,Seats - Indoor,15,144.97104,-37.79605,"{'lon': 144.97104, 'lat': -37.79605}"
2021,226,108233,108233,168-170 Rathdowne Street CARLTON VIC 3053,Carlton,168-170 Rathdowne Street CARLTON VIC 3053,The Olive Jar,4511,Cafes and Restaurants,Seats - Indoor,75,144.97115,-37.79538,"{'lon': 144.97115, 'lat': -37.79538}"
2021,226,108235,108235,164 Rathdowne Street CARLTON VIC 3053,Carlton,164 Rathdowne Street CARLTON VIC 3053,Casa Tajine,4511,Cafes and Restaurants,Seats - Indoor,35,144.97113,-37.79548,"{'lon': 144.97113, 'lat': -37.79548}"
2021,230,106969,106969,237-239 Nicholson Street CARLTON VIC 3053,Carlton,Ground 237 Nicholson Street CARLTON VIC 3053,French Lettuce,4512,Takeaway Food Services,Seats - Outdoor,9,144.97514,-37.7944,"{'lon': 144.97514, 'lat': -37.7944}"
2021,240,104466,104466,Alan Gilbert Building - Bld 104 153-163 Barry Street CARLTON VIC 3053,Carlton,Ground 161 Barry Street CARLTON VIC 3053,Baretto Cafe,4511,Cafes and Restaurants,Seats - Indoor,120,144.95928,-37.80023,"{'lon': 144.95928, 'lat': -37.80023}"
2021,240,104466,104466,Alan Gilbert Building - Bld 104 153-163 Barry Street CARLTON VIC 3053,Carlton,Ground 161 Barry Street CARLTON VIC 3053,Baretto Cafe,4511,Cafes and Restaurants,Seats - Outdoor,15,144.95928,-37.80023,"{'lon': 144.95928, 'lat': -37.80023}"
2021,240,107550,107550,156-180 Berkeley Street CARLTON VIC 3053,Carlton,Part Ground 156-180 Berkeley Street CARLTON VIC 3053,Cafe  Commercio,4511,Cafes and Restaurants,Seats - Outdoor,20,144.95882,-37.80156,"{'lon': 144.95882, 'lat': -37.80156}"
2021,242,101255,101255,Melbourne University 197-235 Bouverie Street CARLTON VIC 3053,Carlton,230-234 Leicester Street CARLTON VIC 3053,The Graduate Union of the University of Melbourne,4400,Accommodation,Seats - Outdoor,30,144.96162,-37.80104,"{'lon': 144.96162, 'lat': -37.80104}"
2021,243,105654,105654,22-40 Lincoln Square North CARLTON VIC 3053,Carlton,154 Bouverie Street CARLTON VIC 3053,Lincoln Bakery Cafe,4511,Cafes and Restaurants,Seats - Outdoor,36,144.96273,-37.80134,"{'lon': 144.96273, 'lat': -37.80134}"
2021,243,109327,109327,Rydges on Swanston - Melbourne 701-713 Swanston Street CARLTON VIC 3053,Carlton,"Part Ground, Levels 1-4 & Tenancy 2 701-713 Swanston Street CARLTON VIC 3053",Rydges on Swanston,4400,Accommodation,Seats - Outdoor,25,144.96338,-37.80142,"{'lon': 144.96338, 'lat': -37.80142}"
2021,243,109330,109330,743-751 Swanston Street CARLTON VIC 3053,Carlton,"Shop 2, 743-751 Swanston Street CARLTON VIC 3053",KFC Carlton,4511,Cafes and Restaurants,Seats - Outdoor,15,144.96364,-37.80062,"{'lon': 144.96364, 'lat': -37.80062}"
2021,243,109330,109330,743-751 Swanston Street CARLTON VIC 3053,Carlton,"Shop 3, 743-751 Swanston Street CARLTON VIC 3053",Lanzhou Beef Noodle Bar,4511,Cafes and Restaurants,Seats - Outdoor,40,144.96364,-37.80062,"{'lon': 144.96364, 'lat': -37.80062}"
2021,245,104450,104450,251-257 Cardigan Street CARLTON VIC 3053,Carlton,"Shop 1, Ground 121 Grattan Street CARLTON VIC 3053",Rice Bar Not Only Rice,4511,Cafes and Restaurants,Seats - Outdoor,40,144.9651,-37.80077,"{'lon': 144.9651, 'lat': -37.80077}"
2021,245,109360,109360,680-682 Swanston Street CARLTON VIC 3053,Carlton,680-682 Swanston Street CARLTON VIC 3053,Colourful Yunnan Restaurant,4511,Cafes and Restaurants,Seats - Indoor,150,144.96424,-37.80063,"{'lon': 144.96424, 'lat': -37.80063}"
2021,245,109365,109365,644-658 Swanston Street CARLTON VIC 3053,Carlton,644 Swanston Street CARLTON VIC 3053,Oko Oko,4511,Cafes and Restaurants,Seats - Indoor,40,144.96428,-37.80132,"{'lon': 144.96428, 'lat': -37.80132}"
2021,245,110987,110987,Astorial Apartments 660-674 Swanston Street CARLTON VIC 3053,Carlton,660 Swanston Street CARLTON VIC 3053,Momo Sushi,4512,Takeaway Food Services,Seats - Outdoor,6,144.9642,-37.80096,"{'lon': 144.9642, 'lat': -37.80096}"
2021,245,581508,538825,Building D Seasons Apartments 604 Swanston Street CARLTON VIC 3053,Carlton,"Tenancy 104D, 604 Swanston Street CARLTON VIC 3053",XD Fresh,4512,Takeaway Food Services,Seats - Indoor,24,144.96433,-37.8019,"{'lon': 144.96433, 'lat': -37.8019}"
2021,245,581508,538825,Building D Seasons Apartments 604 Swanston Street CARLTON VIC 3053,Carlton,"Tenancy 101D, 604 Swanston Street CARLTON VIC 3053",Norsiah's Kitchen,4511,Cafes and Restaurants,Seats - Outdoor,12,144.96433,-37.8019,"{'lon': 144.96433, 'lat': -37.8019}"
2021,246,101693,101693,156-164 Cardigan Street CARLTON VIC 3053,Carlton,"Unit 2, 164 Cardigan Street CARLTON VIC 3053",Jokamz,4511,Cafes and Restaurants,Seats - Outdoor,4,144.96563,-37.80133,"{'lon': 144.96563, 'lat': -37.80133}"
2021,246,106099,106099,163-165 Lygon Street CARLTON VIC 3053,Carlton,Ground & Part Level 1 165 Lygon Street CARLTON VIC 3053,Casa Del Gelato,4512,Takeaway Food Services,Seats - Outdoor,15,144.96643,-37.80187,"{'lon': 144.96643, 'lat': -37.80187}"
2021,246,106099,106099,163-165 Lygon Street CARLTON VIC 3053,Carlton,Ground & Part Level 1 165 Lygon Street CARLTON VIC 3053,Casa Del Gelato,4512,Takeaway Food Services,Seats - Indoor,15,144.96643,-37.80187,"{'lon': 144.96643, 'lat': -37.80187}"
2021,246,106100,106100,167 Lygon Street CARLTON VIC 3053,Carlton,167 Lygon Street CARLTON VIC 3053,Koko Black Carlton,4511,Cafes and Restaurants,Seats - Indoor,35,144.96645,-37.80179,"{'lon': 144.96645, 'lat': -37.80179}"
2021,246,106102,106102,171 Lygon Street CARLTON VIC 3053,Carlton,Ground 171 Lygon Street CARLTON VIC 3053,Mixity Restaurant and Cafe,4511,Cafes and Restaurants,Seats - Indoor,40,144.96647,-37.80166,"{'lon': 144.96647, 'lat': -37.80166}"
2021,246,106103,106103,173 Lygon Street CARLTON VIC 3053,Carlton,173 Lygon Street CARLTON VIC 3053,Hwatu,4511,Cafes and Restaurants,Seats - Indoor,36,144.96648,-37.80161,"{'lon': 144.96648, 'lat': -37.80161}"
2021,246,106105,106105,177-183 Lygon Street CARLTON VIC 3053,Carlton,Gnd & Flr1 181-183 Lygon Street CARLTON VIC 3053,Cafe Cavallino,4511,Cafes and Restaurants,Seats - Outdoor,88,144.96651,-37.80145,"{'lon': 144.96651, 'lat': -37.80145}"
2021,246,106108,106108,191 Lygon Street CARLTON VIC 3053,Carlton,191 Lygon Street CARLTON VIC 3053,Leyalina,4511,Cafes and Restaurants,Seats - Indoor,48,144.9665,-37.80114,"{'lon': 144.9665, 'lat': -37.80114}"
2021,246,106110,106110,201-203 Lygon Street CARLTON VIC 3053,Carlton,201-203 Lygon Street CARLTON VIC 3053,Tono On Borsari,4511,Cafes and Restaurants,Seats - Indoor,70,144.96667,-37.8009,"{'lon': 144.96667, 'lat': -37.8009}"
2021,246,106112,106112,199 Lygon Street CARLTON VIC 3053,Carlton,199 Lygon Street CARLTON VIC 3053,Seasons Provedore,4511,Cafes and Restaurants,Seats - Outdoor,18,144.96666,-37.80097,"{'lon': 144.96666, 'lat': -37.80097}"
2021,246,106112,106112,199 Lygon Street CARLTON VIC 3053,Carlton,199 Lygon Street CARLTON VIC 3053,Seasons Provedore,4511,Cafes and Restaurants,Seats - Indoor,20,144.96666,-37.80097,"{'lon': 144.96666, 'lat': -37.80097}"
2021,246,559022,559022,111-113 Grattan Street CARLTON VIC 3053,Carlton,111-113 Grattan Street CARLTON VIC 3053,Dragon hot pot,4511,Cafes and Restaurants,Seats - Indoor,46,144.96577,-37.80082,"{'lon': 144.96577, 'lat': -37.80082}"
2021,246,559024,559024,115 Grattan Street CARLTON VIC 3053,Carlton,Ground 115 Grattan Street CARLTON VIC 3053,Nasi Lemak House,4512,Takeaway Food Services,Seats - Indoor,12,144.96568,-37.80081,"{'lon': 144.96568, 'lat': -37.80081}"
2021,247,106233,106233,234-236 Lygon Street CARLTON VIC 3053,Carlton,234-236 Lygon Street CARLTON VIC 3053,Ziyka Restaurant,4511,Cafes and Restaurants,Seats - Outdoor,50,144.96723,-37.80169,"{'lon': 144.96723, 'lat': -37.80169}"
2021,247,106236,106236,Carlton Lygon Lodge 220-228 Lygon Street CARLTON VIC 3053,Carlton,222 Lygon Street CARLTON VIC 3053,Little Lygon Restaurant,4511,Cafes and Restaurants,Seats - Outdoor,50,144.96719,-37.80192,"{'lon': 144.96719, 'lat': -37.80192}"
2021,247,106238,106238,192-202 Lygon Street CARLTON VIC 3053,Carlton,Ground 200 Lygon Street CARLTON VIC 3053,Players On Lygon,4520,"Pubs, Taverns and Bars",Seats - Outdoor,12,144.9671,-37.80246,"{'lon': 144.9671, 'lat': -37.80246}"
2021,247,107557,107557,62 Pelham Street CARLTON VIC 3053,Carlton,62 Pelham Street CARLTON VIC 3053,Assembly Store,4512,Takeaway Food Services,Seats - Indoor,15,144.96729,-37.80263,"{'lon': 144.96729, 'lat': -37.80263}"
2021,251,102774,102774,18-40 Queensberry Street CARLTON VIC 3053,Carlton,Ground 80 Drummond Street CARLTON VIC 3053,Coffee on Drummond,4511,Cafes and Restaurants,Seats - Outdoor,8,144.96828,-37.80481,"{'lon': 144.96828, 'lat': -37.80481}"
2021,251,102774,102774,18-40 Queensberry Street CARLTON VIC 3053,Carlton,Ground 80 Drummond Street CARLTON VIC 3053,Coffee on Drummond,4511,Cafes and Restaurants,Seats - Indoor,24,144.96828,-37.80481,"{'lon': 144.96828, 'lat': -37.80481}"
2021,252,106242,106242,166-168 Lygon Street CARLTON VIC 3053,Carlton,166-168 Lygon Street CARLTON VIC 3053,Il Gambero On The Park,4511,Cafes and Restaurants,Seats - Outdoor,28,144.96681,-37.80331,"{'lon': 144.96681, 'lat': -37.80331}"
2021,252,106242,106242,166-168 Lygon Street CARLTON VIC 3053,Carlton,166-168 Lygon Street CARLTON VIC 3053,Il Gambero On The Park,4511,Cafes and Restaurants,Seats - Indoor,221,144.96681,-37.80331,"{'lon': 144.96681, 'lat': -37.80331}"
2021,252,106245,106245,152-154 Lygon Street CARLTON VIC 3053,Carlton,152-154 Lygon Street CARLTON VIC 3053,El GIza Bar and Lounge,4520,"Pubs, Taverns and Bars",Seats - Outdoor,20,144.96674,-37.80359,"{'lon': 144.96674, 'lat': -37.80359}"
2021,252,111059,106250,126 Lygon Street CARLTON VIC 3053,Carlton,126 Lygon Street CARLTON VIC 3053,Hakata Gensuke Carlton,4511,Cafes and Restaurants,Seats - Indoor,22,144.9667,-37.80444,"{'lon': 144.9667, 'lat': -37.80444}"
2021,252,111061,106250,122 Lygon Street CARLTON VIC 3053,Carlton,122 Lygon Street CARLTON VIC 3053,Dong Phuong Vietnamese Cuisine,4511,Cafes and Restaurants,Seats - Outdoor,16,144.9667,-37.80444,"{'lon': 144.9667, 'lat': -37.80444}"
2021,252,111061,106250,122 Lygon Street CARLTON VIC 3053,Carlton,122 Lygon Street CARLTON VIC 3053,Dong Phuong Vietnamese Cuisine,4511,Cafes and Restaurants,Seats - Indoor,30,144.9667,-37.80444,"{'lon': 144.9667, 'lat': -37.80444}"
2021,252,111062,106250,120 Lygon Street CARLTON VIC 3053,Carlton,120 Lygon Street CARLTON VIC 3053,Lygon Charcoal Grill & Steakhouse,4511,Cafes and Restaurants,Seats - Outdoor,29,144.9667,-37.80444,"{'lon': 144.9667, 'lat': -37.80444}"
2021,252,111062,106250,120 Lygon Street CARLTON VIC 3053,Carlton,120 Lygon Street CARLTON VIC 3053,Lygon Charcoal Grill & Steakhouse,4511,Cafes and Restaurants,Seats - Indoor,100,144.9667,-37.80444,"{'lon': 144.9667, 'lat': -37.80444}"
2021,252,111064,106250,114 Lygon Street CARLTON VIC 3053,Carlton,114 Lygon Street CARLTON VIC 3053,Killiney Kopitiam,4511,Cafes and Restaurants,Seats - Outdoor,18,144.9667,-37.80444,"{'lon': 144.9667, 'lat': -37.80444}"
2021,252,111066,106250,110 Lygon Street CARLTON VIC 3053,Carlton,110 Lygon Street CARLTON VIC 3053,Ying Thai 2,4511,Cafes and Restaurants,Seats - Indoor,30,144.9667,-37.80444,"{'lon': 144.9667, 'lat': -37.80444}"
2021,252,111068,106250,106 Lygon Street CARLTON VIC 3053,Carlton,106 Lygon Street CARLTON VIC 3053,Saigon Pho Carlton,4511,Cafes and Restaurants,Seats - Indoor,35,144.9667,-37.80444,"{'lon': 144.9667, 'lat': -37.80444}"
2021,252,111069,106250,104 Lygon Street CARLTON VIC 3053,Carlton,104 Lygon Street CARLTON VIC 3053,Flavours of Indus,4511,Cafes and Restaurants,Seats - Indoor,50,144.9667,-37.80444,"{'lon': 144.9667, 'lat': -37.80444}"
2021,252,111070,106250,80 Queensberry Street CARLTON VIC 3053,Carlton,98-100 Lygon Street CARLTON VIC 3053,Lambs Restaurant,4511,Cafes and Restaurants,Seats - Indoor,85,144.9667,-37.80444,"{'lon': 144.9667, 'lat': -37.80444}"
2021,252,574430,106250,116 Lygon Street CARLTON VIC 3053,Carlton,Ground 116 Lygon Street CARLTON VIC 3053,Il Dolce Freddo,4511,Cafes and Restaurants,Seats - Indoor,22,144.9667,-37.80444,"{'lon': 144.9667, 'lat': -37.80444}"
2021,254,106083,106083,95-97 Lygon Street CARLTON VIC 3053,Carlton,Level 1 90 Queensberry Street CARLTON VIC 3053,Black Cat on Lygon,4511,Cafes and Restaurants,Seats - Indoor,50,144.96595,-37.80468,"{'lon': 144.96595, 'lat': -37.80468}"
2021,254,106084,106084,99-109 Lygon Street CARLTON VIC 3053,Carlton,99 Lygon Street CARLTON VIC 3053,Toto's Pizza,4511,Cafes and Restaurants,Seats - Indoor,70,144.96598,-37.8045,"{'lon': 144.96598, 'lat': -37.8045}"
2021,254,106090,106090,135-137 Lygon Street CARLTON VIC 3053,Carlton,135-137 Lygon Street CARLTON VIC 3053,Universal Pizza,4511,Cafes and Restaurants,Seats - Outdoor,30,144.96608,-37.80391,"{'lon': 144.96608, 'lat': -37.80391}"
2021,254,106090,106090,135-137 Lygon Street CARLTON VIC 3053,Carlton,135-137 Lygon Street CARLTON VIC 3053,Universal Pizza,4511,Cafes and Restaurants,Seats - Indoor,60,144.96608,-37.80391,"{'lon': 144.96608, 'lat': -37.80391}"
2021,254,106091,106091,139-141 Lygon Street CARLTON VIC 3053,Carlton,139-141 Lygon Street CARLTON VIC 3053,Universal Pizza,4511,Cafes and Restaurants,Seats - Indoor,100,144.96609,-37.80385,"{'lon': 144.96609, 'lat': -37.80385}"
2021,254,106094,106094,147 Lygon Street CARLTON VIC 3053,Carlton,Shop 147 Lygon Street CARLTON VIC 3053,Mad Hare,4511,Cafes and Restaurants,Seats - Outdoor,18,144.96611,-37.80373,"{'lon': 144.96611, 'lat': -37.80373}"
2021,254,106096,106096,151 Lygon Street CARLTON VIC 3053,Carlton,Ground 151 Lygon Street CARLTON VIC 3053,Billy's Corner Shop,4511,Cafes and Restaurants,Seats - Outdoor,18,144.96612,-37.80366,"{'lon': 144.96612, 'lat': -37.80366}"
2021,254,106096,106096,151 Lygon Street CARLTON VIC 3053,Carlton,Ground 151 Lygon Street CARLTON VIC 3053,Billy's Corner Shop,4511,Cafes and Restaurants,Seats - Indoor,20,144.96612,-37.80366,"{'lon': 144.96612, 'lat': -37.80366}"
2021,255,109366,109366,127-135 Pelham Street CARLTON VIC 3053,Carlton,127 Pelham Street CARLTON VIC 3053,127 Cafe Go,4511,Cafes and Restaurants,Seats - Indoor,42,144.96395,-37.80277,"{'lon': 144.96395, 'lat': -37.80277}"
2021,255,111305,111305,138 Queensberry Street CARLTON VIC 3053,Carlton,Shop Ground 138 Queensberry Street CARLTON VIC 3053,Super Ling,4511,Cafes and Restaurants,Seats - Indoor,35,144.96429,-37.80445,"{'lon': 144.96429, 'lat': -37.80445}"
2021,256,108026,108026,210 Queensberry Street CARLTON VIC 3053,Carlton,210 Queensberry Street CARLTON VIC 3053,The Queensberry Pour House,4511,Cafes and Restaurants,Seats - Indoor,26,144.96203,-37.80421,"{'lon': 144.96203, 'lat': -37.80421}"
2021,257,101248,101248,139-143 Bouverie Street CARLTON VIC 3053,Carlton,"Unit 1, Ground 139 Bouverie Street CARLTON VIC 3053",Cafe Tre Sette,4511,Cafes and Restaurants,Seats - Indoor,42,144.9617,-37.80322,"{'lon': 144.9617, 'lat': -37.80322}"
2021,257,108024,108024,Melbourne University 224-252 Queensberry Street CARLTON VIC 3053,Carlton,Part Ground 234 Queensberry Street CARLTON VIC 3053,Refuel Catering,4511,Cafes and Restaurants,Seats - Indoor,40,144.96096,-37.80393,"{'lon': 144.96096, 'lat': -37.80393}"
2021,257,525988,525988,165 Pelham Street CARLTON VIC 3053,Carlton,165 Pelham Street CARLTON VIC 3053,Mama Tsai,4511,Cafes and Restaurants,Seats - Indoor,28,144.96107,-37.80239,"{'lon': 144.96107, 'lat': -37.80239}"
2021,257,525992,525992,157 Pelham Street CARLTON VIC 3053,Carlton,Ground 157 Pelham Street CARLTON VIC 3053,Briscola Cafe,4511,Cafes and Restaurants,Seats - Indoor,20,144.96134,-37.80242,"{'lon': 144.96134, 'lat': -37.80242}"
2021,258,568077,568077,Melbourne University Building C 179-201 Pelham Street CARLTON VIC 3053,Carlton,Shop 185 Pelham Street CARLTON VIC 3053,Porta Via,4511,Cafes and Restaurants,Seats - Outdoor,40,144.96006,-37.80241,"{'lon': 144.96006, 'lat': -37.80241}"
2021,258,592858,592858,127-133 Leicester Street CARLTON VIC 3053,Carlton,"Unit 1, Ground 127-133 Leicester Street CARLTON VIC 3053",Bar Scopa,4511,Cafes and Restaurants,Seats - Outdoor,16,144.96021,-37.8029,"{'lon': 144.96021, 'lat': -37.8029}"
2021,260,103272,103272,642-644 Elizabeth Street MELBOURNE VIC 3000,Carlton,642-644 Elizabeth Street MELBOURNE VIC 3000,Arabesque,4511,Cafes and Restaurants,Seats - Indoor,80,144.95861,-37.80329,"{'lon': 144.95861, 'lat': -37.80329}"
2021,261,103290,103290,520-522 Elizabeth Street MELBOURNE VIC 3000,Carlton,520-522 Elizabeth Street MELBOURNE VIC 3000,Lanzhou Beef Noodle Soup,4511,Cafes and Restaurants,Seats - Indoor,36,144.95975,-37.80579,"{'lon': 144.95975, 'lat': -37.80579}"
2021,263,101243,101243,71-79 Bouverie Street CARLTON VIC 3053,Carlton,Retail 1 71-79 Bouverie Street CARLTON VIC 3053,Humble Rays,4511,Cafes and Restaurants,Seats - Outdoor,12,144.96141,-37.80478,"{'lon': 144.96141, 'lat': -37.80478}"
2021,263,101243,101243,71-79 Bouverie Street CARLTON VIC 3053,Carlton,Retail 1 71-79 Bouverie Street CARLTON VIC 3053,Humble Rays,4511,Cafes and Restaurants,Seats - Indoor,60,144.96141,-37.80478,"{'lon': 144.96141, 'lat': -37.80478}"
2021,264,109322,109322,593-597 Swanston Street CARLTON VIC 3053,Carlton,593-597 Swanston Street CARLTON VIC 3053,Queensberry Hotel,4520,"Pubs, Taverns and Bars",Seats - Indoor,60,144.96291,-37.80475,"{'lon': 144.96291, 'lat': -37.80475}"
2021,265,101581,101581,55 Cardigan Street CARLTON VIC 3053,Carlton,Ground 55 Cardigan Street CARLTON VIC 3053,Mr Bello,4511,Cafes and Restaurants,Seats - Outdoor,12,144.96428,-37.80544,"{'lon': 144.96428, 'lat': -37.80544}"
2021,265,107867,107867,139-155 Queensberry Street CARLTON VIC 3053,Carlton,143 Queensberry Street CARLTON VIC 3053,Torissong,4511,Cafes and Restaurants,Seats - Indoor,16,144.96392,-37.80493,"{'lon': 144.96392, 'lat': -37.80493}"
2021,265,109377,109377,514-520 Swanston Street CARLTON VIC 3053,Carlton,520 Swanston Street CARLTON VIC 3053,Jang Gun Restaurant,4511,Cafes and Restaurants,Seats - Indoor,38,144.96353,-37.80484,"{'lon': 144.96353, 'lat': -37.80484}"
2021,265,664021,664021,23-37 Cardigan Street CARLTON VIC 3053,Carlton,Part Level 4 23-27 Cardigan Street CARLTON VIC 3053,Coffee On Cardigan,4511,Cafes and Restaurants,Seats - Outdoor,68,144.96396,-37.80593,"{'lon': 144.96396, 'lat': -37.80593}"
2021,266,109851,109851,74 Victoria Street CARLTON VIC 3053,Carlton,Ground 74 Victoria Street CARLTON VIC 3053,Chinger Biang Biang Noodle,4511,Cafes and Restaurants,Seats - Indoor,20,144.96535,-37.8067,"{'lon': 144.96535, 'lat': -37.8067}"
2021,266,534003,534003,70 Victoria Street CARLTON VIC 3053,Carlton,70 Victoria Street CARLTON VIC 3053,Dragonball Dumpling,4512,Takeaway Food Services,Seats - Indoor,20,144.96547,-37.80671,"{'lon': 144.96547, 'lat': -37.80671}"
2021,266,534005,534005,68 Victoria Street CARLTON VIC 3053,Carlton,68 Victoria Street CARLTON VIC 3053,Carlton Megabytes,4511,Cafes and Restaurants,Seats - Indoor,33,144.96553,-37.80672,"{'lon': 144.96553, 'lat': -37.80672}"
2021,203,103123,103123,258 Elgin Street CARLTON VIC 3053,Carlton,258 Elgin Street CARLTON VIC 3053,Cafe Sua Da,4511,Cafes and Restaurants,Seats - Indoor,45,144.96553,-37.79671,"{'lon': 144.96553, 'lat': -37.79671}"
2021,203,109358,109358,832-834 Swanston Street CARLTON VIC 3053,Carlton,Ground 832 Swanston Street CARLTON VIC 3053,Dumpling & Chinese Cuisine,4511,Cafes and Restaurants,Seats - Indoor,42,144.9649,-37.79668,"{'lon': 144.9649, 'lat': -37.79668}"
2021,204,101613,101613,377-391 Cardigan Street CARLTON VIC 3053,Carlton,377-391 Cardigan Street CARLTON VIC 3053,Clyde Hotel,4520,"Pubs, Taverns and Bars",Seats - Outdoor,50,144.96575,-37.79726,"{'lon': 144.96575, 'lat': -37.79726}"
2021,205,512713,512713,Kathleen Syme Library and Community Centre 249-263 Faraday Street CARLTON VIC 3053,Carlton,Part 251 Faraday Street CARLTON VIC 3053,Wild Timor Coffee Carlton Pty Ltd,4511,Cafes and Restaurants,Seats - Indoor,17,144.96526,-37.79872,"{'lon': 144.96526, 'lat': -37.79872}"
2021,205,512713,512713,Kathleen Syme Library and Community Centre 249-263 Faraday Street CARLTON VIC 3053,Carlton,Part 251 Faraday Street CARLTON VIC 3053,Wild Timor Coffee Carlton Pty Ltd,4511,Cafes and Restaurants,Seats - Outdoor,24,144.96526,-37.79872,"{'lon': 144.96526, 'lat': -37.79872}"
2021,205,573289,573289,Royal Dental Hospital 720 Swanston Street CARLTON VIC 3053,Carlton,Part Ground 720 Swanston Street CARLTON VIC 3053,Toothpicks Cafe,4511,Cafes and Restaurants,Seats - Indoor,60,144.96489,-37.79946,"{'lon': 144.96489, 'lat': -37.79946}"
2021,205,573290,573290,740-750 Swanston Street CARLTON VIC 3053,Carlton,748 Swanston Street CARLTON VIC 3053,Claypot Kingdom,4511,Cafes and Restaurants,Seats - Indoor,40,144.96477,-37.799,"{'lon': 144.96477, 'lat': -37.799}"
2021,206,103694,103694,235-237 Faraday Street CARLTON VIC 3053,Carlton,Part 237 Faraday Street CARLTON VIC 3053,New York Minute,4511,Cafes and Restaurants,Seats - Outdoor,24,144.9663,-37.79881,"{'lon': 144.9663, 'lat': -37.79881}"
2021,207,106143,106143,303 Lygon Street CARLTON VIC 3053,Carlton,303 Lygon Street CARLTON VIC 3053,Tiamo Coffee,4511,Cafes and Restaurants,Seats - Outdoor,29,144.96709,-37.79822,"{'lon': 144.96709, 'lat': -37.79822}"
2021,207,106143,106143,303 Lygon Street CARLTON VIC 3053,Carlton,303 Lygon Street CARLTON VIC 3053,Tiamo Coffee,4511,Cafes and Restaurants,Seats - Indoor,50,144.96709,-37.79822,"{'lon': 144.96709, 'lat': -37.79822}"
2021,207,106149,106149,323 Lygon Street CARLTON VIC 3053,Carlton,323 Lygon Street CARLTON VIC 3053,Milk The Cow,4511,Cafes and Restaurants,Seats - Outdoor,20,144.96713,-37.79777,"{'lon': 144.96713, 'lat': -37.79777}"
2021,207,106153,106153,331-335 Lygon Street CARLTON VIC 3053,Carlton,331-335 Lygon Street CARLTON VIC 3053,Jimmy Watsons,4511,Cafes and Restaurants,Seats - Outdoor,28,144.96717,-37.79751,"{'lon': 144.96717, 'lat': -37.79751}"
2021,208,101660,101660,330-332 Cardigan Street CARLTON VIC 3053,Carlton,Gnd & Flr1 330 Cardigan Street CARLTON VIC 3053,Le Miel Et Le Lune,4511,Cafes and Restaurants,Seats - Outdoor,8,144.96638,-37.79686,"{'lon': 144.96638, 'lat': -37.79686}"
2021,212,106871,102697,478 Drummond Street CARLTON VIC 3053,Carlton,Shop 478 Drummond Street CARLTON VIC 3053,Adonai Foods,4511,Cafes and Restaurants,Seats - Outdoor,16,144.96925,-37.79475,"{'lon': 144.96925, 'lat': -37.79475}"
2021,212,633373,633373,497-513 Rathdowne Street CARLTON VIC 3053,Carlton,Part Ground 497-513 Rathdowne Street CARLTON VIC 3053,Rathdowne & Reeves Cafe,4511,Cafes and Restaurants,Seats - Indoor,48,144.97077,-37.79366,"{'lon': 144.97077, 'lat': -37.79366}"
2021,215,103144,103144,138-144 Elgin Street CARLTON VIC 3053,Carlton,144 Elgin Street CARLTON VIC 3053,Campos Coffee,4511,Cafes and Restaurants,Seats - Outdoor,12,144.96981,-37.79715,"{'lon': 144.96981, 'lat': -37.79715}"
2021,215,108202,108202,415-421 Rathdowne Street CARLTON VIC 3053,Carlton,415-421 Rathdowne Street CARLTON VIC 3053,Capitano,4511,Cafes and Restaurants,Seats - Indoor,80,144.97043,-37.79652,"{'lon': 144.97043, 'lat': -37.79652}"
2021,216,102715,102715,348 Drummond Street CARLTON VIC 3053,Carlton,348 Drummond Street CARLTON VIC 3053,Vincent The Dog,4511,Cafes and Restaurants,Seats - Outdoor,12,144.96927,-37.79778,"{'lon': 144.96927, 'lat': -37.79778}"
2021,216,103101,103101,161-169 Elgin Street CARLTON VIC 3053,Carlton,Ground 169 Elgin Street CARLTON VIC 3053,Cafe Lua,4511,Cafes and Restaurants,Seats - Outdoor,36,144.96929,-37.79758,"{'lon': 144.96929, 'lat': -37.79758}"
2021,217,103102,103102,171-175 Elgin Street CARLTON VIC 3053,Carlton,171-175 Elgin Street CARLTON VIC 3053,The Shaw Davey Slum,4511,Cafes and Restaurants,Seats - Indoor,300,144.96871,-37.79751,"{'lon': 144.96871, 'lat': -37.79751}"
2021,217,103704,103704,194-196 Faraday Street CARLTON VIC 3053,Carlton,Ground 194-196 Faraday Street CARLTON VIC 3053,Yo-Chi,4511,Cafes and Restaurants,Seats - Indoor,40,144.96802,-37.79844,"{'lon': 144.96802, 'lat': -37.79844}"
2021,217,106189,106189,398-400 Lygon Street CARLTON VIC 3053,Carlton,400 Lygon Street CARLTON VIC 3053,Trotters Bistro,4511,Cafes and Restaurants,Seats - Outdoor,24,144.96776,-37.79763,"{'lon': 144.96776, 'lat': -37.79763}"
2021,217,106195,106195,364 Lygon Street CARLTON VIC 3053,Carlton,364 Lygon Street CARLTON VIC 3053,Sea salt kitchen,4511,Cafes and Restaurants,Seats - Outdoor,17,144.96764,-37.79828,"{'lon': 144.96764, 'lat': -37.79828}"
2021,217,106196,106196,362 Lygon Street CARLTON VIC 3053,Carlton,362 Lygon Street CARLTON VIC 3053,Sea salt kitchen,4511,Cafes and Restaurants,Seats - Outdoor,17,144.96763,-37.79833,"{'lon': 144.96763, 'lat': -37.79833}"
2021,217,511124,511124,183 Elgin Street CARLTON VIC 3053,Carlton,183 Elgin Street CARLTON VIC 3053,Gemma Simple Italian,4511,Cafes and Restaurants,Seats - Outdoor,10,144.96838,-37.79753,"{'lon': 144.96838, 'lat': -37.79753}"
2021,217,511124,511124,183 Elgin Street CARLTON VIC 3053,Carlton,183 Elgin Street CARLTON VIC 3053,Gemma Simple Italian,4511,Cafes and Restaurants,Seats - Indoor,60,144.96838,-37.79753,"{'lon': 144.96838, 'lat': -37.79753}"
2021,218,103689,103689,201-203 Faraday Street CARLTON VIC 3053,Carlton,201-203 Faraday Street CARLTON VIC 3053,Shakahari Vegetarian Restaurant,4511,Cafes and Restaurants,Seats - Outdoor,20,144.9678,-37.799,"{'lon': 144.9678, 'lat': -37.799}"
2021,218,104477,104477,48-50 Grattan Street CARLTON VIC 3053,Carlton,48-50 Grattan Street CARLTON VIC 3053,Mr Pietro,4511,Cafes and Restaurants,Seats - Indoor,180,144.96788,-37.8006,"{'lon': 144.96788, 'lat': -37.8006}"
2021,218,106197,106197,350 Lygon Street CARLTON VIC 3053,Carlton,350 Lygon Street CARLTON VIC 3053,Grill'd Healthy Burgers,4511,Cafes and Restaurants,Seats - Indoor,56,144.96753,-37.79887,"{'lon': 144.96753, 'lat': -37.79887}"
2021,218,106197,106197,350 Lygon Street CARLTON VIC 3053,Carlton,350 Lygon Street CARLTON VIC 3053,Grill'd Healthy Burgers,4511,Cafes and Restaurants,Seats - Outdoor,32,144.96753,-37.79887,"{'lon': 144.96753, 'lat': -37.79887}"
2021,218,106205,106205,330 Lygon Street CARLTON VIC 3053,Carlton,330 Lygon Street CARLTON VIC 3053,DOC Delicatessen,4129,Other Specialised Food Retailing,Seats - Indoor,6,144.96748,-37.79926,"{'lon': 144.96748, 'lat': -37.79926}"
2021,218,106206,106206,326-328 Lygon Street CARLTON VIC 3053,Carlton,Gnd & Flr1 326 Lygon Street CARLTON VIC 3053,DOC Espresso,4511,Cafes and Restaurants,Seats - Indoor,50,144.96747,-37.79932,"{'lon': 144.96747, 'lat': -37.79932}"
2021,218,106209,106209,320 Lygon Street CARLTON VIC 3053,Carlton,320 Lygon Street CARLTON VIC 3053,Donnini's Restaurant,4511,Cafes and Restaurants,Seats - Outdoor,24,144.9675,-37.79954,"{'lon': 144.9675, 'lat': -37.79954}"
2021,218,106209,106209,320 Lygon Street CARLTON VIC 3053,Carlton,320 Lygon Street CARLTON VIC 3053,Donnini's Restaurant,4511,Cafes and Restaurants,Seats - Indoor,70,144.9675,-37.79954,"{'lon': 144.9675, 'lat': -37.79954}"
2021,218,106216,106216,294-296 Lygon Street CARLTON VIC 3053,Carlton,294-296 Lygon Street CARLTON VIC 3053,Shinbashi Yakiniku,4511,Cafes and Restaurants,Seats - Indoor,74,144.96735,-37.80004,"{'lon': 144.96735, 'lat': -37.80004}"
2021,224,108247,108247,114-116 Rathdowne Street CARLTON VIC 3053,Carlton,114-116 Rathdowne Street CARLTON VIC 3053,Paris Go Bistro,4511,Cafes and Restaurants,Seats - Outdoor,4,144.97088,-37.79696,"{'lon': 144.97088, 'lat': -37.79696}"
2021,225,108239,108239,138-150 Rathdowne Street CARLTON VIC 3053,Carlton,140 Rathdowne Street CARLTON VIC 3053,Bloom Coffee Bar,4511,Cafes and Restaurants,Seats - Outdoor,6,144.97104,-37.79605,"{'lon': 144.97104, 'lat': -37.79605}"
2021,225,108239,108239,138-150 Rathdowne Street CARLTON VIC 3053,Carlton,140 Rathdowne Street CARLTON VIC 3053,Bloom Coffee Bar,4511,Cafes and Restaurants,Seats - Indoor,22,144.97104,-37.79605,"{'lon': 144.97104, 'lat': -37.79605}"
2021,226,108228,108228,180 Rathdowne Street CARLTON VIC 3053,Carlton,180 Rathdowne Street CARLTON VIC 3053,Osc&r On Rathdowne,4511,Cafes and Restaurants,Seats - Indoor,30,144.97119,-37.79514,"{'lon': 144.97119, 'lat': -37.79514}"
2021,226,108229,108229,178 Rathdowne Street CARLTON VIC 3053,Carlton,178 Rathdowne Street CARLTON VIC 3053,Sushi Ten,4511,Cafes and Restaurants,Seats - Indoor,24,144.97118,-37.79519,"{'lon': 144.97118, 'lat': -37.79519}"
2021,226,108230,108230,176 Rathdowne Street CARLTON VIC 3053,Carlton,176 Rathdowne Street CARLTON VIC 3053,Jaidieo Thai Cuisine,4511,Cafes and Restaurants,Seats - Outdoor,12,144.97118,-37.79523,"{'lon': 144.97118, 'lat': -37.79523}"
2021,226,108232,108232,172 Rathdowne Street CARLTON VIC 3053,Carlton,172 Rathdowne Street CARLTON VIC 3053,Fu Lu Chinese Cafe,4511,Cafes and Restaurants,Seats - Indoor,20,144.97116,-37.79532,"{'lon': 144.97116, 'lat': -37.79532}"
2021,226,108236,108236,160-162 Rathdowne Street CARLTON VIC 3053,Carlton,160-162 Rathdowne Street CARLTON VIC 3053,Calrton Pizzeria Bar and Restaurant,4511,Cafes and Restaurants,Seats - Outdoor,12,144.97112,-37.79554,"{'lon': 144.97112, 'lat': -37.79554}"
2021,230,106969,106969,237-239 Nicholson Street CARLTON VIC 3053,Carlton,Ground 237 Nicholson Street CARLTON VIC 3053,French Lettuce,4512,Takeaway Food Services,Seats - Indoor,12,144.97514,-37.7944,"{'lon': 144.97514, 'lat': -37.7944}"
2021,232,106956,106956,191 Nicholson Street CARLTON VIC 3053,Carlton,191 Nicholson Street CARLTON VIC 3053,Scopri Italian Food & Wine,4511,Cafes and Restaurants,Seats - Indoor,60,144.97492,-37.79569,"{'lon': 144.97492, 'lat': -37.79569}"
2021,239,107548,107548,222-224 Pelham Street MELBOURNE VIC 3000,Carlton,Ground 224 Pelham Street MELBOURNE VIC 3000,Books N Bites Cafe,4511,Cafes and Restaurants,Seats - Outdoor,12,144.95833,-37.80169,"{'lon': 144.95833, 'lat': -37.80169}"
2021,240,101052,101052,212 Berkeley Street CARLTON VIC 3053,Carlton,Ground 212 Berkeley Street CARLTON VIC 3053,Haymarket Place,4511,Cafes and Restaurants,Seats - Indoor,47,144.959,-37.80052,"{'lon': 144.959, 'lat': -37.80052}"
2021,240,107550,107550,156-180 Berkeley Street CARLTON VIC 3053,Carlton,Part Ground 156-180 Berkeley Street CARLTON VIC 3053,Cafe  Commercio,4511,Cafes and Restaurants,Seats - Indoor,115,144.95882,-37.80156,"{'lon': 144.95882, 'lat': -37.80156}"
2021,240,107551,107551,196-198 Pelham Street CARLTON VIC 3053,Carlton,196 Pelham Street CARLTON VIC 3053,The Dumplings & Tea Co,4511,Cafes and Restaurants,Seats - Outdoor,8,144.95923,-37.80186,"{'lon': 144.95923, 'lat': -37.80186}"
2021,242,101255,101255,Melbourne University 197-235 Bouverie Street CARLTON VIC 3053,Carlton,230-234 Leicester Street CARLTON VIC 3053,The Graduate Union of the University of Melbourne,4400,Accommodation,Seats - Indoor,200,144.96162,-37.80104,"{'lon': 144.96162, 'lat': -37.80104}"
2021,242,104461,104461,Prince Alfred Hotel 191-197 Grattan Street CARLTON VIC 3053,Carlton,Prince Alfred Hotel 191-197 Grattan Street CARLTON VIC 3053,The Prince Alfred Rooftop and Bar,4520,"Pubs, Taverns and Bars",Seats - Indoor,120,144.96221,-37.80046,"{'lon': 144.96221, 'lat': -37.80046}"
2021,243,109327,109327,Rydges on Swanston - Melbourne 701-713 Swanston Street CARLTON VIC 3053,Carlton,"Part Ground, Levels 1-4 & Tenancy 2 701-713 Swanston Street CARLTON VIC 3053",Rydges on Swanston,4400,Accommodation,Seats - Indoor,110,144.96338,-37.80142,"{'lon': 144.96338, 'lat': -37.80142}"
2021,245,104450,104450,251-257 Cardigan Street CARLTON VIC 3053,Carlton,"Shop 2, Ground 121 Grattan Street CARLTON VIC 3053",Domino's Pizza,4512,Takeaway Food Services,Seats - Outdoor,10,144.9651,-37.80077,"{'lon': 144.9651, 'lat': -37.80077}"
2021,245,104450,104450,251-257 Cardigan Street CARLTON VIC 3053,Carlton,"Shop 3, Ground 121 Grattan Street CARLTON VIC 3053",Rakuzen Simple Japanese,4511,Cafes and Restaurants,Seats - Outdoor,12,144.9651,-37.80077,"{'lon': 144.9651, 'lat': -37.80077}"
2021,245,104450,104450,251-257 Cardigan Street CARLTON VIC 3053,Carlton,"Shop 2, Ground 121 Grattan Street CARLTON VIC 3053",Domino's Pizza,4512,Takeaway Food Services,Seats - Indoor,15,144.9651,-37.80077,"{'lon': 144.9651, 'lat': -37.80077}"
2021,245,109365,109365,644-658 Swanston Street CARLTON VIC 3053,Carlton,650 Swanston Street CARLTON VIC 3053,Carlton Black Ball,4511,Cafes and Restaurants,Seats - Indoor,25,144.96428,-37.80132,"{'lon': 144.96428, 'lat': -37.80132}"
2021,245,110987,110987,Astorial Apartments 660-674 Swanston Street CARLTON VIC 3053,Carlton,672 Swanston Street CARLTON VIC 3053,Subway Carlton,4512,Takeaway Food Services,Seats - Outdoor,9,144.9642,-37.80096,"{'lon': 144.9642, 'lat': -37.80096}"
2021,245,110987,110987,Astorial Apartments 660-674 Swanston Street CARLTON VIC 3053,Carlton,660 Swanston Street CARLTON VIC 3053,Momo Sushi,4512,Takeaway Food Services,Seats - Indoor,18,144.9642,-37.80096,"{'lon': 144.9642, 'lat': -37.80096}"
2021,245,581508,538825,Building D Seasons Apartments 604 Swanston Street CARLTON VIC 3053,Carlton,"Tenancy 103D, 604 Swanston Street CARLTON VIC 3053",Delect A Bowl,4511,Cafes and Restaurants,Seats - Indoor,74,144.96433,-37.8019,"{'lon': 144.96433, 'lat': -37.8019}"
2021,246,101693,101693,156-164 Cardigan Street CARLTON VIC 3053,Carlton,"Unit 3, 164 Cardigan Street CARLTON VIC 3053",Don Tojo,4511,Cafes and Restaurants,Seats - Indoor,48,144.96563,-37.80133,"{'lon': 144.96563, 'lat': -37.80133}"
2021,246,101693,101693,156-164 Cardigan Street CARLTON VIC 3053,Carlton,"Unit 3, 164 Cardigan Street CARLTON VIC 3053",Don Tojo,4511,Cafes and Restaurants,Seats - Outdoor,10,144.96563,-37.80133,"{'lon': 144.96563, 'lat': -37.80133}"
2021,246,104447,104447,81-109 Grattan Street CARLTON VIC 3053,Carlton,81 Grattan Street CARLTON VIC 3053,Tutto Premium Frozen Yogurt And Dessert,4512,Takeaway Food Services,Seats - Indoor,16,144.96622,-37.80107,"{'lon': 144.96622, 'lat': -37.80107}"
2021,246,104449,104449,117 Grattan Street CARLTON VIC 3053,Carlton,117 Grattan Street CARLTON VIC 3053,Pepper alley,4511,Cafes and Restaurants,Seats - Outdoor,18,144.96562,-37.8008,"{'lon': 144.96562, 'lat': -37.8008}"
2021,246,106101,106101,169 Lygon Street CARLTON VIC 3053,Carlton,Ground 169 Lygon Street CARLTON VIC 3053,Stuzzichino,4511,Cafes and Restaurants,Seats - Indoor,35,144.96646,-37.80172,"{'lon': 144.96646, 'lat': -37.80172}"
2021,246,106104,106104,175 Lygon Street CARLTON VIC 3053,Carlton,175 Lygon Street CARLTON VIC 3053,Chocolateria San Churro,4511,Cafes and Restaurants,Seats - Indoor,60,144.96649,-37.80156,"{'lon': 144.96649, 'lat': -37.80156}"
2021,246,106105,106105,177-183 Lygon Street CARLTON VIC 3053,Carlton,177-179 Lygon Street CARLTON VIC 3053,Cafe Notturno,4511,Cafes and Restaurants,Seats - Outdoor,48,144.96651,-37.80145,"{'lon': 144.96651, 'lat': -37.80145}"
2021,246,106105,106105,177-183 Lygon Street CARLTON VIC 3053,Carlton,Gnd & Flr1 181-183 Lygon Street CARLTON VIC 3053,Cafe Cavallino,4511,Cafes and Restaurants,Seats - Indoor,100,144.96651,-37.80145,"{'lon': 144.96651, 'lat': -37.80145}"
2021,246,106105,106105,177-183 Lygon Street CARLTON VIC 3053,Carlton,177-179 Lygon Street CARLTON VIC 3053,Cafe Notturno,4511,Cafes and Restaurants,Seats - Indoor,100,144.96651,-37.80145,"{'lon': 144.96651, 'lat': -37.80145}"
2021,246,106107,106107,189 Lygon Street CARLTON VIC 3053,Carlton,189 Lygon Street CARLTON VIC 3053,Tabouli,4511,Cafes and Restaurants,Seats - Indoor,45,144.96649,-37.80119,"{'lon': 144.96649, 'lat': -37.80119}"
2021,247,106227,106227,256 Lygon Street CARLTON VIC 3053,Carlton,256 Lygon Street CARLTON VIC 3053,Il Gusto,4511,Cafes and Restaurants,Seats - Indoor,75,144.96716,-37.80119,"{'lon': 144.96716, 'lat': -37.80119}"
2021,247,106231,106231,240 Lygon Street CARLTON VIC 3053,Carlton,240 Lygon Street CARLTON VIC 3053,Piccolo Mondo,4511,Cafes and Restaurants,Seats - Outdoor,28,144.96724,-37.80158,"{'lon': 144.96724, 'lat': -37.80158}"
2021,247,106231,106231,240 Lygon Street CARLTON VIC 3053,Carlton,240 Lygon Street CARLTON VIC 3053,Piccolo Mondo,4511,Cafes and Restaurants,Seats - Indoor,120,144.96724,-37.80158,"{'lon': 144.96724, 'lat': -37.80158}"
2021,247,106233,106233,234-236 Lygon Street CARLTON VIC 3053,Carlton,234-236 Lygon Street CARLTON VIC 3053,Ziyka Restaurant,4511,Cafes and Restaurants,Seats - Indoor,100,144.96723,-37.80169,"{'lon': 144.96723, 'lat': -37.80169}"
2021,247,106237,106237,204-218 Lygon Street CARLTON VIC 3053,Carlton,Part Ground 204 Lygon Street CARLTON VIC 3053,Pertutti Cafe Restaurant,4511,Cafes and Restaurants,Seats - Indoor,80,144.96714,-37.80219,"{'lon': 144.96714, 'lat': -37.80219}"
2021,247,106237,106237,204-218 Lygon Street CARLTON VIC 3053,Carlton,Part Ground 204 Lygon Street CARLTON VIC 3053,Pertutti Cafe Restaurant,4511,Cafes and Restaurants,Seats - Outdoor,12,144.96714,-37.80219,"{'lon': 144.96714, 'lat': -37.80219}"
2021,248,104445,104445,218-224 Drummond Street CARLTON VIC 3053,Carlton,218-224 Drummond Street CARLTON VIC 3053,Leonardo's Pizza Palace,4511,Cafes and Restaurants,Seats - Indoor,80,144.9686,-37.80116,"{'lon': 144.9686, 'lat': -37.80116}"
2021,250,623345,108266,Melbourne Museum 11 Nicholson Street CARLTON VIC 3053,Carlton,Restaurant 11 Nicholson Street CARLTON VIC 3053,The Museum Cafe,4511,Cafes and Restaurants,Seats - Indoor,200,144.97163,-37.80397,"{'lon': 144.97163, 'lat': -37.80397}"
2021,252,106246,106246,148-150 Lygon Street CARLTON VIC 3053,Carlton,150 Lygon Street CARLTON VIC 3053,Roberts Italian Restaurant,4511,Cafes and Restaurants,Seats - Indoor,60,144.96673,-37.80367,"{'lon': 144.96673, 'lat': -37.80367}"
2021,252,106248,106248,132-136 Lygon Street CARLTON VIC 3053,Carlton,132-136 Lygon Street CARLTON VIC 3053,La Spaghetteria Ristorante,4511,Cafes and Restaurants,Seats - Outdoor,42,144.96669,-37.80396,"{'lon': 144.96669, 'lat': -37.80396}"
2021,252,106249,106249,128-130 Lygon Street CARLTON VIC 3053,Carlton,128-130 Lygon Street CARLTON VIC 3053,Da Guido,4511,Cafes and Restaurants,Seats - Outdoor,14,144.96668,-37.80404,"{'lon': 144.96668, 'lat': -37.80404}"
2021,252,106249,106249,128-130 Lygon Street CARLTON VIC 3053,Carlton,128-130 Lygon Street CARLTON VIC 3053,Da Guido,4511,Cafes and Restaurants,Seats - Indoor,60,144.96668,-37.80404,"{'lon': 144.96668, 'lat': -37.80404}"
2021,252,111060,106250,124 Lygon Street CARLTON VIC 3053,Carlton,124 Lygon Street CARLTON VIC 3053,Thai City Restaurant,4511,Cafes and Restaurants,Seats - Outdoor,24,144.9667,-37.80444,"{'lon': 144.9667, 'lat': -37.80444}"
2021,252,111065,106250,112 Lygon Street CARLTON VIC 3053,Carlton,112 Lygon Street CARLTON VIC 3053,D'Penyetz & D'Cendol,4511,Cafes and Restaurants,Seats - Outdoor,22,144.9667,-37.80444,"{'lon': 144.9667, 'lat': -37.80444}"
2021,252,111067,106250,108 Lygon Street CARLTON VIC 3053,Carlton,108 Lygon Street CARLTON VIC 3053,Carlton Curry House,4511,Cafes and Restaurants,Seats - Outdoor,12,144.9667,-37.80444,"{'lon': 144.9667, 'lat': -37.80444}"
2021,252,574431,106250,118 Lygon Street CARLTON VIC 3053,Carlton,118 Lygon Street CARLTON VIC 3053,Confucius Says,4511,Cafes and Restaurants,Seats - Indoor,30,144.9667,-37.80444,"{'lon': 144.9667, 'lat': -37.80444}"
2021,254,106083,106083,95-97 Lygon Street CARLTON VIC 3053,Carlton,Ground 95-97 Lygon Street CARLTON VIC 3053,I Love Istanbul,4511,Cafes and Restaurants,Seats - Outdoor,12,144.96595,-37.80468,"{'lon': 144.96595, 'lat': -37.80468}"
2021,254,106084,106084,99-109 Lygon Street CARLTON VIC 3053,Carlton,99 Lygon Street CARLTON VIC 3053,Toto's Pizza,4511,Cafes and Restaurants,Seats - Outdoor,28,144.96598,-37.8045,"{'lon': 144.96598, 'lat': -37.8045}"
2021,254,106086,106086,121 Lygon Street CARLTON VIC 3053,Carlton,121 Lygon Street CARLTON VIC 3053,Kazuki's Restaurant,4511,Cafes and Restaurants,Seats - Indoor,40,144.96602,-37.80415,"{'lon': 144.96602, 'lat': -37.80415}"
2021,254,106087,106087,123-125 Lygon Street CARLTON VIC 3053,Carlton,Ground 123 Lygon Street CARLTON VIC 3053,Mercadante Pizza,4511,Cafes and Restaurants,Seats - Outdoor,30,144.96603,-37.80409,"{'lon': 144.96603, 'lat': -37.80409}"
2021,254,106094,106094,147 Lygon Street CARLTON VIC 3053,Carlton,Shop 147 Lygon Street CARLTON VIC 3053,Mad Hare,4511,Cafes and Restaurants,Seats - Indoor,18,144.96611,-37.80373,"{'lon': 144.96611, 'lat': -37.80373}"
2021,254,106095,106095,149 Lygon Street CARLTON VIC 3053,Carlton,Ground 149 Lygon Street CARLTON VIC 3053,Tank Fish And Chippery,4511,Cafes and Restaurants,Seats - Outdoor,18,144.96611,-37.8037,"{'lon': 144.96611, 'lat': -37.8037}"
2021,254,106095,106095,149 Lygon Street CARLTON VIC 3053,Carlton,Ground 149 Lygon Street CARLTON VIC 3053,Tank Fish And Chippery,4511,Cafes and Restaurants,Seats - Indoor,25,144.96611,-37.8037,"{'lon': 144.96611, 'lat': -37.8037}"
2021,255,101593,101593,Lincoln Hotel 91-95 Cardigan Street CARLTON VIC 3053,Carlton,Lincoln Hotel 91 Cardigan Street CARLTON VIC 3053,Hotel Lincoln,4520,"Pubs, Taverns and Bars",Seats - Indoor,62,144.96451,-37.80449,"{'lon': 144.96451, 'lat': -37.80449}"
2021,255,107541,107541,95-125 Pelham Street CARLTON VIC 3053,Carlton,119 Pelham Street CARLTON VIC 3053,Mid Square Coffee,4512,Takeaway Food Services,Seats - Indoor,12,144.96442,-37.80282,"{'lon': 144.96442, 'lat': -37.80282}"
2021,256,109323,109323,Tune Hotel 607-621 Swanston Street CARLTON VIC 3053,Carlton,Part 609 Swanston Street CARLTON VIC 3053,Wokks,4511,Cafes and Restaurants,Seats - Indoor,80,144.96296,-37.80404,"{'lon': 144.96296, 'lat': -37.80404}"
2021,256,518847,518847,19-21 Lincoln Square South CARLTON VIC 3053,Carlton,19-21 Lincoln Square South CARLTON VIC 3053,Kaprica,4511,Cafes and Restaurants,Seats - Outdoor,15,144.96278,-37.80336,"{'lon': 144.96278, 'lat': -37.80336}"
2021,257,101248,101248,139-143 Bouverie Street CARLTON VIC 3053,Carlton,"Unit 1, Ground 139 Bouverie Street CARLTON VIC 3053",Cafe Tre Sette,4511,Cafes and Restaurants,Seats - Outdoor,24,144.9617,-37.80322,"{'lon': 144.9617, 'lat': -37.80322}"
2021,257,105523,105523,108-128 Leicester Street CARLTON VIC 3053,Carlton,Cafe 108-128 Leicester Street CARLTON VIC 3053,Stovetop,4511,Cafes and Restaurants,Seats - Outdoor,16,144.96104,-37.80335,"{'lon': 144.96104, 'lat': -37.80335}"
2021,257,105523,105523,108-128 Leicester Street CARLTON VIC 3053,Carlton,Cafe 108-128 Leicester Street CARLTON VIC 3053,Stovetop,4511,Cafes and Restaurants,Seats - Indoor,70,144.96104,-37.80335,"{'lon': 144.96104, 'lat': -37.80335}"
2021,257,525988,525988,165 Pelham Street CARLTON VIC 3053,Carlton,165 Pelham Street CARLTON VIC 3053,Mama Tsai,4511,Cafes and Restaurants,Seats - Outdoor,12,144.96107,-37.80239,"{'lon': 144.96107, 'lat': -37.80239}"
2021,257,525992,525992,157 Pelham Street CARLTON VIC 3053,Carlton,Ground 157 Pelham Street CARLTON VIC 3053,Briscola Cafe,4511,Cafes and Restaurants,Seats - Outdoor,16,144.96134,-37.80242,"{'lon': 144.96134, 'lat': -37.80242}"
2021,258,592858,592858,127-133 Leicester Street CARLTON VIC 3053,Carlton,"Unit 1, Ground 127-133 Leicester Street CARLTON VIC 3053",Bar Scopa,4511,Cafes and Restaurants,Seats - Indoor,14,144.96021,-37.8029,"{'lon': 144.96021, 'lat': -37.8029}"
2021,262,107875,107875,261-263 Queensberry Street CARLTON VIC 3053,Carlton,Ground 261-263 Queensberry Street CARLTON VIC 3053,Flovie Florist Cafe,4511,Cafes and Restaurants,Seats - Outdoor,10,144.95993,-37.80441,"{'lon': 144.95993, 'lat': -37.80441}"
2021,263,105527,105527,Journal - Uni Place 16-32 Leicester Street CARLTON VIC 3053,Carlton,28 Leicester Street CARLTON VIC 3053,A Cafe Called John,4511,Cafes and Restaurants,Seats - Outdoor,16,144.96051,-37.8057,"{'lon': 144.96051, 'lat': -37.8057}"
2021,265,101588,101588,73-81 Cardigan Street CARLTON VIC 3053,Carlton,"Shop 1, Ground 73 Cardigan Street CARLTON VIC 3053",Cream & Crumbs,4512,Takeaway Food Services,Seats - Indoor,14,144.96436,-37.80506,"{'lon': 144.96436, 'lat': -37.80506}"
2021,265,101592,101592,87 Cardigan Street CARLTON VIC 3053,Carlton,87 Cardigan Street CARLTON VIC 3053,Woodside Green,4511,Cafes and Restaurants,Seats - Outdoor,18,144.96445,-37.80486,"{'lon': 144.96445, 'lat': -37.80486}"
2021,265,101592,101592,87 Cardigan Street CARLTON VIC 3053,Carlton,87 Cardigan Street CARLTON VIC 3053,Woodside Green,4511,Cafes and Restaurants,Seats - Indoor,18,144.96445,-37.80486,"{'lon': 144.96445, 'lat': -37.80486}"
2021,265,109384,109384,462-468 Swanston Street CARLTON VIC 3053,Carlton,"Part Unit 1, Ground 466 Swanston Street CARLTON VIC 3053",Boogie House Hotpot,4511,Cafes and Restaurants,Seats - Indoor,48,144.96333,-37.80601,"{'lon': 144.96333, 'lat': -37.80601}"
2021,265,109384,109384,462-468 Swanston Street CARLTON VIC 3053,Carlton,"Part Unit 1, Ground 466 Swanston Street CARLTON VIC 3053",Boogie House Hotpot,4511,Cafes and Restaurants,Seats - Outdoor,6,144.96333,-37.80601,"{'lon': 144.96333, 'lat': -37.80601}"
2021,265,109848,109848,96-100 Victoria Street CARLTON VIC 3053,Carlton,96-100 Victoria Street CARLTON VIC 3053,Panda Hot Pot,4511,Cafes and Restaurants,Seats - Indoor,320,144.96418,-37.8065,"{'lon': 144.96418, 'lat': -37.8065}"
2021,266,106081,106081,John Curtin Hotel 27-31 Lygon Street CARLTON VIC 3053,Carlton,John Curtin Hotel 27-31 Lygon Street CARLTON VIC 3053,The Curtin,4520,"Pubs, Taverns and Bars",Seats - Outdoor,16,144.9657,-37.8062,"{'lon': 144.9657, 'lat': -37.8062}"
2021,266,106081,106081,John Curtin Hotel 27-31 Lygon Street CARLTON VIC 3053,Carlton,John Curtin Hotel 27-31 Lygon Street CARLTON VIC 3053,The Curtin,4520,"Pubs, Taverns and Bars",Seats - Indoor,71,144.9657,-37.8062,"{'lon': 144.9657, 'lat': -37.8062}"
2021,266,111078,111078,16-26 Orr Street CARLTON VIC 3053,Carlton,Part Ground 22 Orr Street CARLTON VIC 3053,Hi Chong Qing Cafe & Noodle Bar,4511,Cafes and Restaurants,Seats - Outdoor,8,144.9654,-37.80634,"{'lon': 144.9654, 'lat': -37.80634}"
2021,266,111078,111078,16-26 Orr Street CARLTON VIC 3053,Carlton,Part Ground 22 Orr Street CARLTON VIC 3053,Hi Chong Qing Cafe & Noodle Bar,4511,Cafes and Restaurants,Seats - Indoor,20,144.9654,-37.80634,"{'lon': 144.9654, 'lat': -37.80634}"
2021,266,534005,534005,68 Victoria Street CARLTON VIC 3053,Carlton,68 Victoria Street CARLTON VIC 3053,Carlton Megabytes,4511,Cafes and Restaurants,Seats - Outdoor,6,144.96553,-37.80672,"{'lon': 144.96553, 'lat': -37.80672}"
2021,267,106254,106254,Trades Hall 2-40 Lygon Street CARLTON VIC 3053,Carlton,Part Ground 54 Victoria Street CARLTON VIC 3053,Common Rooms At Trades Hall,9003,Performing Arts Venue Operation,Seats - Indoor,140,144.96641,-37.80644,"{'lon': 144.96641, 'lat': -37.80644}"
2021,268,108154,108153,Montefiore House Exhibition Mews 49 Rathdowne Street CARLTON VIC 3053,Carlton,Montefiore House Exhibition Mews 49 Rathdowne Street CARLTON VIC 3053,Epocha Restaurant,4511,Cafes and Restaurants,Seats - Indoor,100,144.96856,-37.80577,"{'lon': 144.96856, 'lat': -37.80577}"
2021,268,108154,108153,Montefiore House Exhibition Mews 49 Rathdowne Street CARLTON VIC 3053,Carlton,Montefiore House Exhibition Mews 49 Rathdowne Street CARLTON VIC 3053,Epocha Restaurant,4511,Cafes and Restaurants,Seats - Outdoor,30,144.96856,-37.80577,"{'lon': 144.96856, 'lat': -37.80577}"
2021,274,107697,107696,Ikon Park 400 Royal Parade CARLTON NORTH VIC 3054,Carlton,Part Ground Ikon Park Princes Park 400 Royal Parade CARLTON NORTH VIC 3054,Carlton Cafe,4511,Cafes and Restaurants,Seats - Indoor,70,144.96153,-37.78499,"{'lon': 144.96153, 'lat': -37.78499}"
2021,204,101613,101613,377-391 Cardigan Street CARLTON VIC 3053,Carlton,377-391 Cardigan Street CARLTON VIC 3053,Clyde Hotel,4520,"Pubs, Taverns and Bars",Seats - Indoor,70,144.96575,-37.79726,"{'lon': 144.96575, 'lat': -37.79726}"
2021,205,573290,573290,740-750 Swanston Street CARLTON VIC 3053,Carlton,740 Swanston Street CARLTON VIC 3053,E Dumpling,4511,Cafes and Restaurants,Seats - Outdoor,8,144.96477,-37.799,"{'lon': 144.96477, 'lat': -37.799}"
2021,206,106118,106118,219-221 Lygon Street CARLTON VIC 3053,Carlton,219-221 Lygon Street CARLTON VIC 3053,Papa Gino's Pizza Restaurant,4511,Cafes and Restaurants,Seats - Outdoor,40,144.96672,-37.80019,"{'lon': 144.96672, 'lat': -37.80019}"
2021,206,106120,106120,225-229 Lygon Street CARLTON VIC 3053,Carlton,225-229 Lygon Street CARLTON VIC 3053,Cafe Corretto,4511,Cafes and Restaurants,Seats - Indoor,60,144.96674,-37.80005,"{'lon': 144.96674, 'lat': -37.80005}"
2021,207,106144,106144,305 Lygon Street CARLTON VIC 3053,Carlton,305 Lygon Street CARLTON VIC 3053,Tiamo 2,4511,Cafes and Restaurants,Seats - Indoor,125,144.96708,-37.79818,"{'lon': 144.96708, 'lat': -37.79818}"
2021,207,106145,106145,307 Lygon Street CARLTON VIC 3053,Carlton,307 Lygon Street CARLTON VIC 3053,Tiamo 2,4511,Cafes and Restaurants,Seats - Outdoor,15,144.96698,-37.79812,"{'lon': 144.96698, 'lat': -37.79812}"
2021,207,106145,106145,307 Lygon Street CARLTON VIC 3053,Carlton,307 Lygon Street CARLTON VIC 3053,Tiamo 2,4511,Cafes and Restaurants,Seats - Indoor,60,144.96698,-37.79812,"{'lon': 144.96698, 'lat': -37.79812}"
2021,207,106154,106154,337-343 Lygon Street CARLTON VIC 3053,Carlton,341-343 Lygon Street CARLTON VIC 3053,Intersection Cafe,4511,Cafes and Restaurants,Seats - Outdoor,6,144.96723,-37.79735,"{'lon': 144.96723, 'lat': -37.79735}"
2021,208,101660,101660,330-332 Cardigan Street CARLTON VIC 3053,Carlton,Gnd & Flr1 330 Cardigan Street CARLTON VIC 3053,Le Miel Et Le Lune,4511,Cafes and Restaurants,Seats - Indoor,35,144.96638,-37.79686,"{'lon': 144.96638, 'lat': -37.79686}"
2021,212,106871,102697,478 Drummond Street CARLTON VIC 3053,Carlton,Shop 478 Drummond Street CARLTON VIC 3053,Adonai Foods,4511,Cafes and Restaurants,Seats - Indoor,30,144.96925,-37.79475,"{'lon': 144.96925, 'lat': -37.79475}"
2021,215,103142,103142,156-160 Elgin Street CARLTON VIC 3053,Carlton,156 Elgin Street CARLTON VIC 3053,Bossa Nova Coffee And Friends,4511,Cafes and Restaurants,Seats - Indoor,18,144.96939,-37.79714,"{'lon': 144.96939, 'lat': -37.79714}"
2021,215,108197,108197,401 Rathdowne Street CARLTON VIC 3053,Carlton,401 Rathdowne Street CARLTON VIC 3053,Pagla,4511,Cafes and Restaurants,Seats - Indoor,30,144.97032,-37.79692,"{'lon': 144.97032, 'lat': -37.79692}"
2021,216,102715,102715,348 Drummond Street CARLTON VIC 3053,Carlton,348 Drummond Street CARLTON VIC 3053,Vincent The Dog,4511,Cafes and Restaurants,Seats - Indoor,21,144.96927,-37.79778,"{'lon': 144.96927, 'lat': -37.79778}"
2021,216,103101,103101,161-169 Elgin Street CARLTON VIC 3053,Carlton,Ground 169 Elgin Street CARLTON VIC 3053,Cafe Lua,4511,Cafes and Restaurants,Seats - Indoor,24,144.96929,-37.79758,"{'lon': 144.96929, 'lat': -37.79758}"
2021,217,102686,102686,313-315 Drummond Street CARLTON VIC 3053,Carlton,313-315 Drummond Street CARLTON VIC 3053,Masani Italian Dining & Terrace,4511,Cafes and Restaurants,Seats - Indoor,60,144.96849,-37.79838,"{'lon': 144.96849, 'lat': -37.79838}"
2021,217,103107,103107,189 Elgin Street CARLTON VIC 3053,Carlton,"Shop 1, Ground 189 Elgin Street CARLTON VIC 3053",The Heart of Carlton,4512,Takeaway Food Services,Seats - Outdoor,5,144.96821,-37.79746,"{'lon': 144.96821, 'lat': -37.79746}"
2021,217,103710,103710,176-178 Faraday Street CARLTON VIC 3053,Carlton,Part 178 Faraday Street CARLTON VIC 3053,Market Lane Coffee,4512,Takeaway Food Services,Seats - Outdoor,4,144.96849,-37.79857,"{'lon': 144.96849, 'lat': -37.79857}"
2021,217,103711,103711,172-174 Faraday Street CARLTON VIC 3053,Carlton,Ground 172-174 Faraday Street CARLTON VIC 3053,The Carlton Wine Room,4511,Cafes and Restaurants,Seats - Indoor,140,144.96859,-37.79858,"{'lon': 144.96859, 'lat': -37.79858}"
2021,217,106193,106193,368-386 Lygon Street CARLTON VIC 3053,Carlton,"Shop 17-18, 368-384 Lygon Street CARLTON VIC 3053",Brunetti Carlton,4511,Cafes and Restaurants,Seats - Outdoor,100,144.96815,-37.79804,"{'lon': 144.96815, 'lat': -37.79804}"
2021,217,106193,106193,368-386 Lygon Street CARLTON VIC 3053,Carlton,"Shop 17-18, 368-384 Lygon Street CARLTON VIC 3053",Brunetti Carlton,4511,Cafes and Restaurants,Seats - Indoor,300,144.96815,-37.79804,"{'lon': 144.96815, 'lat': -37.79804}"
2021,217,106196,106196,362 Lygon Street CARLTON VIC 3053,Carlton,362 Lygon Street CARLTON VIC 3053,Sea salt kitchen,4511,Cafes and Restaurants,Seats - Indoor,43,144.96763,-37.79833,"{'lon': 144.96763, 'lat': -37.79833}"
2021,217,612757,612757,8 Raffa Place CARLTON VIC 3053,Carlton,8 Raffa Place CARLTON VIC 3053,The Vertue of the Coffee Drink,4511,Cafes and Restaurants,Seats - Indoor,80,144.96838,-37.79769,"{'lon': 144.96838, 'lat': -37.79769}"
2021,217,612757,612757,8 Raffa Place CARLTON VIC 3053,Carlton,8 Raffa Place CARLTON VIC 3053,The Vertue of the Coffee Drink,4511,Cafes and Restaurants,Seats - Outdoor,25,144.96838,-37.79769,"{'lon': 144.96838, 'lat': -37.79769}"
2021,218,102685,102685,295-297 Drummond Street CARLTON VIC 3053,Carlton,295-297 Drummond Street CARLTON VIC 3053,Doc Pizza & Mozarella Bar,4511,Cafes and Restaurants,Seats - Indoor,60,144.96844,-37.79899,"{'lon': 144.96844, 'lat': -37.79899}"
2021,218,102685,102685,295-297 Drummond Street CARLTON VIC 3053,Carlton,295-297 Drummond Street CARLTON VIC 3053,Doc Pizza & Mozarella Bar,4511,Cafes and Restaurants,Seats - Outdoor,30,144.96844,-37.79899,"{'lon': 144.96844, 'lat': -37.79899}"
2021,218,103689,103689,201-203 Faraday Street CARLTON VIC 3053,Carlton,201-203 Faraday Street CARLTON VIC 3053,Shakahari Vegetarian Restaurant,4511,Cafes and Restaurants,Seats - Indoor,76,144.9678,-37.799,"{'lon': 144.9678, 'lat': -37.799}"
2021,218,104477,104477,48-50 Grattan Street CARLTON VIC 3053,Carlton,48-50 Grattan Street CARLTON VIC 3053,Mr Pietro,4511,Cafes and Restaurants,Seats - Outdoor,4,144.96788,-37.8006,"{'lon': 144.96788, 'lat': -37.8006}"
2021,218,106203,106203,334-336 Lygon Street CARLTON VIC 3053,Carlton,334 Lygon Street CARLTON VIC 3053,Lavezzi Gelateria,4512,Takeaway Food Services,Seats - Outdoor,16,144.96749,-37.79916,"{'lon': 144.96749, 'lat': -37.79916}"
2021,218,106210,106210,316-318 Lygon Street CARLTON VIC 3053,Carlton,316-318 Lygon Street CARLTON VIC 3053,Copperwood,4511,Cafes and Restaurants,Seats - Indoor,160,144.96759,-37.79963,"{'lon': 144.96759, 'lat': -37.79963}"
2021,218,106210,106210,316-318 Lygon Street CARLTON VIC 3053,Carlton,316-318 Lygon Street CARLTON VIC 3053,Copperwood,4511,Cafes and Restaurants,Seats - Outdoor,33,144.96759,-37.79963,"{'lon': 144.96759, 'lat': -37.79963}"
2021,218,106212,106212,306-308 Lygon Street CARLTON VIC 3053,Carlton,Ground 306-308 Lygon Street CARLTON VIC 3053,St. Charly,4511,Cafes and Restaurants,Seats - Indoor,64,144.96742,-37.79979,"{'lon': 144.96742, 'lat': -37.79979}"
2021,218,106212,106212,306-308 Lygon Street CARLTON VIC 3053,Carlton,Ground 306-308 Lygon Street CARLTON VIC 3053,St. Charly,4511,Cafes and Restaurants,Seats - Outdoor,32,144.96742,-37.79979,"{'lon': 144.96742, 'lat': -37.79979}"
2021,223,103070,103070,63 Elgin Street CARLTON VIC 3053,Carlton,63 Elgin Street CARLTON VIC 3053,Brew Culture,4512,Takeaway Food Services,Seats - Outdoor,6,144.97242,-37.7979,"{'lon': 144.97242, 'lat': -37.7979}"
2021,223,103070,103070,63 Elgin Street CARLTON VIC 3053,Carlton,63 Elgin Street CARLTON VIC 3053,Brew Culture,4512,Takeaway Food Services,Seats - Indoor,20,144.97242,-37.7979,"{'lon': 144.97242, 'lat': -37.7979}"
2021,223,103086,103086,109 Elgin Street CARLTON VIC 3053,Carlton,109 Elgin Street CARLTON VIC 3053,Abla's Restaurant,4511,Cafes and Restaurants,Seats - Indoor,75,144.97103,-37.79781,"{'lon': 144.97103, 'lat': -37.79781}"
2021,226,108228,108228,180 Rathdowne Street CARLTON VIC 3053,Carlton,180 Rathdowne Street CARLTON VIC 3053,Osc&r On Rathdowne,4511,Cafes and Restaurants,Seats - Outdoor,6,144.97119,-37.79514,"{'lon': 144.97119, 'lat': -37.79514}"
2021,226,108230,108230,176 Rathdowne Street CARLTON VIC 3053,Carlton,176 Rathdowne Street CARLTON VIC 3053,Jaidieo Thai Cuisine,4511,Cafes and Restaurants,Seats - Indoor,23,144.97118,-37.79523,"{'lon': 144.97118, 'lat': -37.79523}"
2021,226,108232,108232,172 Rathdowne Street CARLTON VIC 3053,Carlton,172 Rathdowne Street CARLTON VIC 3053,Fu Lu Chinese Cafe,4511,Cafes and Restaurants,Seats - Outdoor,4,144.97116,-37.79532,"{'lon': 144.97116, 'lat': -37.79532}"
2021,226,108233,108233,168-170 Rathdowne Street CARLTON VIC 3053,Carlton,168-170 Rathdowne Street CARLTON VIC 3053,The Olive Jar,4511,Cafes and Restaurants,Seats - Outdoor,9,144.97115,-37.79538,"{'lon': 144.97115, 'lat': -37.79538}"
2021,226,108236,108236,160-162 Rathdowne Street CARLTON VIC 3053,Carlton,160-162 Rathdowne Street CARLTON VIC 3053,Calrton Pizzeria Bar and Restaurant,4511,Cafes and Restaurants,Seats - Indoor,20,144.97112,-37.79554,"{'lon': 144.97112, 'lat': -37.79554}"
2021,239,107547,107547,226 Pelham Street MELBOURNE VIC 3000,Carlton,Part 226 Pelham Street MELBOURNE VIC 3000,226 Jubang,4512,Takeaway Food Services,Seats - Indoor,6,144.95824,-37.80168,"{'lon': 144.95824, 'lat': -37.80168}"
2021,239,107548,107548,222-224 Pelham Street MELBOURNE VIC 3000,Carlton,Ground 224 Pelham Street MELBOURNE VIC 3000,Books N Bites Cafe,4511,Cafes and Restaurants,Seats - Indoor,60,144.95833,-37.80169,"{'lon': 144.95833, 'lat': -37.80169}"
2021,240,101052,101052,212 Berkeley Street CARLTON VIC 3053,Carlton,Ground 212 Berkeley Street CARLTON VIC 3053,Haymarket Place,4511,Cafes and Restaurants,Seats - Outdoor,10,144.959,-37.80052,"{'lon': 144.959, 'lat': -37.80052}"
2021,240,107551,107551,196-198 Pelham Street CARLTON VIC 3053,Carlton,196 Pelham Street CARLTON VIC 3053,The Dumplings & Tea Co,4511,Cafes and Restaurants,Seats - Indoor,24,144.95923,-37.80186,"{'lon': 144.95923, 'lat': -37.80186}"
2021,243,104455,104455,167 Grattan Street CARLTON VIC 3053,Carlton,167 Grattan Street CARLTON VIC 3053,Mantra Lounge,4511,Cafes and Restaurants,Seats - Outdoor,34,144.9633,-37.80058,"{'lon': 144.9633, 'lat': -37.80058}"
2021,243,104455,104455,167 Grattan Street CARLTON VIC 3053,Carlton,167 Grattan Street CARLTON VIC 3053,Mantra Lounge,4511,Cafes and Restaurants,Seats - Indoor,32,144.9633,-37.80058,"{'lon': 144.9633, 'lat': -37.80058}"
2021,243,109330,109330,743-751 Swanston Street CARLTON VIC 3053,Carlton,"Shop 2, 743-751 Swanston Street CARLTON VIC 3053",KFC Carlton,4511,Cafes and Restaurants,Seats - Indoor,22,144.96364,-37.80062,"{'lon': 144.96364, 'lat': -37.80062}"
2021,243,109330,109330,743-751 Swanston Street CARLTON VIC 3053,Carlton,"Shop 3, 743-751 Swanston Street CARLTON VIC 3053",Lanzhou Beef Noodle Bar,4511,Cafes and Restaurants,Seats - Indoor,44,144.96364,-37.80062,"{'lon': 144.96364, 'lat': -37.80062}"
2021,245,104450,104450,251-257 Cardigan Street CARLTON VIC 3053,Carlton,"Shop 3, Ground 121 Grattan Street CARLTON VIC 3053",Rakuzen Simple Japanese,4511,Cafes and Restaurants,Seats - Indoor,36,144.9651,-37.80077,"{'lon': 144.9651, 'lat': -37.80077}"
2021,245,104450,104450,251-257 Cardigan Street CARLTON VIC 3053,Carlton,"Shop 1, Ground 121 Grattan Street CARLTON VIC 3053",Rice Bar Not Only Rice,4511,Cafes and Restaurants,Seats - Indoor,58,144.9651,-37.80077,"{'lon': 144.9651, 'lat': -37.80077}"
2021,245,109360,109360,680-682 Swanston Street CARLTON VIC 3053,Carlton,680-682 Swanston Street CARLTON VIC 3053,Colourful Yunnan Restaurant,4511,Cafes and Restaurants,Seats - Outdoor,8,144.96424,-37.80063,"{'lon': 144.96424, 'lat': -37.80063}"
2021,245,109361,109361,678 Swanston Street CARLTON VIC 3053,Carlton,678 Swanston Street CARLTON VIC 3053,Xian Famous Foods,4511,Cafes and Restaurants,Seats - Indoor,60,144.96423,-37.80069,"{'lon': 144.96423, 'lat': -37.80069}"
2021,245,110987,110987,Astorial Apartments 660-674 Swanston Street CARLTON VIC 3053,Carlton,672 Swanston Street CARLTON VIC 3053,Subway Carlton,4512,Takeaway Food Services,Seats - Indoor,30,144.9642,-37.80096,"{'lon': 144.9642, 'lat': -37.80096}"
2021,245,581508,538825,Building D Seasons Apartments 604 Swanston Street CARLTON VIC 3053,Carlton,"Tenancy 101D, 604 Swanston Street CARLTON VIC 3053",Norsiah's Kitchen,4511,Cafes and Restaurants,Seats - Indoor,28,144.96433,-37.8019,"{'lon': 144.96433, 'lat': -37.8019}"
2021,246,101693,101693,156-164 Cardigan Street CARLTON VIC 3053,Carlton,"Unit 2, 164 Cardigan Street CARLTON VIC 3053",Jokamz,4511,Cafes and Restaurants,Seats - Indoor,35,144.96563,-37.80133,"{'lon': 144.96563, 'lat': -37.80133}"
2021,246,104447,104447,81-109 Grattan Street CARLTON VIC 3053,Carlton,81 Grattan Street CARLTON VIC 3053,Tutto Premium Frozen Yogurt And Dessert,4512,Takeaway Food Services,Seats - Outdoor,20,144.96622,-37.80107,"{'lon': 144.96622, 'lat': -37.80107}"
2021,246,104449,104449,117 Grattan Street CARLTON VIC 3053,Carlton,117 Grattan Street CARLTON VIC 3053,Pepper alley,4511,Cafes and Restaurants,Seats - Indoor,20,144.96562,-37.8008,"{'lon': 144.96562, 'lat': -37.8008}"
2021,246,106100,106100,167 Lygon Street CARLTON VIC 3053,Carlton,167 Lygon Street CARLTON VIC 3053,Koko Black Carlton,4511,Cafes and Restaurants,Seats - Outdoor,8,144.96645,-37.80179,"{'lon': 144.96645, 'lat': -37.80179}"
2021,246,106101,106101,169 Lygon Street CARLTON VIC 3053,Carlton,Ground 169 Lygon Street CARLTON VIC 3053,Stuzzichino,4511,Cafes and Restaurants,Seats - Outdoor,30,144.96646,-37.80172,"{'lon': 144.96646, 'lat': -37.80172}"
2021,246,106102,106102,171 Lygon Street CARLTON VIC 3053,Carlton,Ground 171 Lygon Street CARLTON VIC 3053,Mixity Restaurant and Cafe,4511,Cafes and Restaurants,Seats - Outdoor,24,144.96647,-37.80166,"{'lon': 144.96647, 'lat': -37.80166}"
2021,246,106103,106103,173 Lygon Street CARLTON VIC 3053,Carlton,173 Lygon Street CARLTON VIC 3053,Hwatu,4511,Cafes and Restaurants,Seats - Outdoor,12,144.96648,-37.80161,"{'lon': 144.96648, 'lat': -37.80161}"
2021,246,106104,106104,175 Lygon Street CARLTON VIC 3053,Carlton,175 Lygon Street CARLTON VIC 3053,Chocolateria San Churro,4511,Cafes and Restaurants,Seats - Outdoor,24,144.96649,-37.80156,"{'lon': 144.96649, 'lat': -37.80156}"
2021,246,106107,106107,189 Lygon Street CARLTON VIC 3053,Carlton,189 Lygon Street CARLTON VIC 3053,Tabouli,4511,Cafes and Restaurants,Seats - Outdoor,20,144.96649,-37.80119,"{'lon': 144.96649, 'lat': -37.80119}"
2021,246,106108,106108,191 Lygon Street CARLTON VIC 3053,Carlton,191 Lygon Street CARLTON VIC 3053,Leyalina,4511,Cafes and Restaurants,Seats - Outdoor,26,144.9665,-37.80114,"{'lon': 144.9665, 'lat': -37.80114}"
2021,246,106110,106110,201-203 Lygon Street CARLTON VIC 3053,Carlton,201-203 Lygon Street CARLTON VIC 3053,Tono On Borsari,4511,Cafes and Restaurants,Seats - Outdoor,58,144.96667,-37.8009,"{'lon': 144.96667, 'lat': -37.8009}"
2021,246,106111,106111,197 Lygon Street CARLTON VIC 3053,Carlton,197 Lygon Street CARLTON VIC 3053,Gelatissimo Carlton,4512,Takeaway Food Services,Seats - Outdoor,8,144.96665,-37.80102,"{'lon': 144.96665, 'lat': -37.80102}"
2021,246,559024,559024,115 Grattan Street CARLTON VIC 3053,Carlton,Ground 115 Grattan Street CARLTON VIC 3053,Nasi Lemak House,4512,Takeaway Food Services,Seats - Outdoor,16,144.96568,-37.80081,"{'lon': 144.96568, 'lat': -37.80081}"
2021,247,106227,106227,256 Lygon Street CARLTON VIC 3053,Carlton,256 Lygon Street CARLTON VIC 3053,Il Gusto,4511,Cafes and Restaurants,Seats - Outdoor,24,144.96716,-37.80119,"{'lon': 144.96716, 'lat': -37.80119}"
2021,247,106232,106232,238 Lygon Street CARLTON VIC 3053,Carlton,238 Lygon Street CARLTON VIC 3053,Spaghettata Restaurant,4511,Cafes and Restaurants,Seats - Indoor,130,144.96723,-37.80163,"{'lon': 144.96723, 'lat': -37.80163}"
2021,247,106232,106232,238 Lygon Street CARLTON VIC 3053,Carlton,238 Lygon Street CARLTON VIC 3053,Spaghettata Restaurant,4511,Cafes and Restaurants,Seats - Outdoor,44,144.96723,-37.80163,"{'lon': 144.96723, 'lat': -37.80163}"
2021,247,106236,106236,Carlton Lygon Lodge 220-228 Lygon Street CARLTON VIC 3053,Carlton,222 Lygon Street CARLTON VIC 3053,Little Lygon Restaurant,4511,Cafes and Restaurants,Seats - Indoor,26,144.96719,-37.80192,"{'lon': 144.96719, 'lat': -37.80192}"
2021,247,107557,107557,62 Pelham Street CARLTON VIC 3053,Carlton,62 Pelham Street CARLTON VIC 3053,Assembly Store,4512,Takeaway Food Services,Seats - Outdoor,6,144.96729,-37.80263,"{'lon': 144.96729, 'lat': -37.80263}"
2021,247,107558,107558,60 Pelham Street CARLTON VIC 3053,Carlton,60 Pelham Street CARLTON VIC 3053,Assembly Store,4512,Takeaway Food Services,Seats - Outdoor,6,144.96734,-37.80262,"{'lon': 144.96734, 'lat': -37.80262}"
2021,247,107558,107558,60 Pelham Street CARLTON VIC 3053,Carlton,60 Pelham Street CARLTON VIC 3053,Assembly Store,4512,Takeaway Food Services,Seats - Indoor,15,144.96734,-37.80262,"{'lon': 144.96734, 'lat': -37.80262}"
2021,248,104445,104445,218-224 Drummond Street CARLTON VIC 3053,Carlton,218-224 Drummond Street CARLTON VIC 3053,Leonardo's Pizza Palace,4511,Cafes and Restaurants,Seats - Outdoor,26,144.9686,-37.80116,"{'lon': 144.9686, 'lat': -37.80116}"
2021,252,106245,106245,152-154 Lygon Street CARLTON VIC 3053,Carlton,152-154 Lygon Street CARLTON VIC 3053,El GIza Bar and Lounge,4520,"Pubs, Taverns and Bars",Seats - Indoor,100,144.96674,-37.80359,"{'lon': 144.96674, 'lat': -37.80359}"
2021,252,106248,106248,132-136 Lygon Street CARLTON VIC 3053,Carlton,132-136 Lygon Street CARLTON VIC 3053,La Spaghetteria Ristorante,4511,Cafes and Restaurants,Seats - Indoor,180,144.96669,-37.80396,"{'lon': 144.96669, 'lat': -37.80396}"
2021,252,111059,106250,126 Lygon Street CARLTON VIC 3053,Carlton,126 Lygon Street CARLTON VIC 3053,Hakata Gensuke Carlton,4511,Cafes and Restaurants,Seats - Outdoor,8,144.9667,-37.80444,"{'lon': 144.9667, 'lat': -37.80444}"
2021,252,111060,106250,124 Lygon Street CARLTON VIC 3053,Carlton,124 Lygon Street CARLTON VIC 3053,Thai City Restaurant,4511,Cafes and Restaurants,Seats - Indoor,55,144.9667,-37.80444,"{'lon': 144.9667, 'lat': -37.80444}"
2021,252,111064,106250,114 Lygon Street CARLTON VIC 3053,Carlton,114 Lygon Street CARLTON VIC 3053,Killiney Kopitiam,4511,Cafes and Restaurants,Seats - Indoor,27,144.9667,-37.80444,"{'lon': 144.9667, 'lat': -37.80444}"
2021,252,111065,106250,112 Lygon Street CARLTON VIC 3053,Carlton,112 Lygon Street CARLTON VIC 3053,D'Penyetz & D'Cendol,4511,Cafes and Restaurants,Seats - Indoor,20,144.9667,-37.80444,"{'lon': 144.9667, 'lat': -37.80444}"
2021,252,111066,106250,110 Lygon Street CARLTON VIC 3053,Carlton,110 Lygon Street CARLTON VIC 3053,Ying Thai 2,4511,Cafes and Restaurants,Seats - Outdoor,20,144.9667,-37.80444,"{'lon': 144.9667, 'lat': -37.80444}"
2021,252,111067,106250,108 Lygon Street CARLTON VIC 3053,Carlton,108 Lygon Street CARLTON VIC 3053,Carlton Curry House,4511,Cafes and Restaurants,Seats - Indoor,28,144.9667,-37.80444,"{'lon': 144.9667, 'lat': -37.80444}"
2021,252,111068,106250,106 Lygon Street CARLTON VIC 3053,Carlton,106 Lygon Street CARLTON VIC 3053,Saigon Pho Carlton,4511,Cafes and Restaurants,Seats - Outdoor,10,144.9667,-37.80444,"{'lon': 144.9667, 'lat': -37.80444}"
2021,252,111070,106250,80 Queensberry Street CARLTON VIC 3053,Carlton,98-100 Lygon Street CARLTON VIC 3053,Lambs Restaurant,4511,Cafes and Restaurants,Seats - Outdoor,22,144.9667,-37.80444,"{'lon': 144.9667, 'lat': -37.80444}"
2021,252,574430,106250,116 Lygon Street CARLTON VIC 3053,Carlton,Ground 116 Lygon Street CARLTON VIC 3053,Il Dolce Freddo,4511,Cafes and Restaurants,Seats - Outdoor,24,144.9667,-37.80444,"{'lon': 144.9667, 'lat': -37.80444}"
2021,252,574431,106250,118 Lygon Street CARLTON VIC 3053,Carlton,118 Lygon Street CARLTON VIC 3053,Confucius Says,4511,Cafes and Restaurants,Seats - Outdoor,20,144.9667,-37.80444,"{'lon': 144.9667, 'lat': -37.80444}"
2021,254,106083,106083,95-97 Lygon Street CARLTON VIC 3053,Carlton,Ground 95-97 Lygon Street CARLTON VIC 3053,I Love Istanbul,4511,Cafes and Restaurants,Seats - Indoor,42,144.96595,-37.80468,"{'lon': 144.96595, 'lat': -37.80468}"
2021,254,106087,106087,123-125 Lygon Street CARLTON VIC 3053,Carlton,Ground 123 Lygon Street CARLTON VIC 3053,Mercadante Pizza,4511,Cafes and Restaurants,Seats - Indoor,45,144.96603,-37.80409,"{'lon': 144.96603, 'lat': -37.80409}"
2021,254,106091,106091,139-141 Lygon Street CARLTON VIC 3053,Carlton,139-141 Lygon Street CARLTON VIC 3053,Universal Pizza,4511,Cafes and Restaurants,Seats - Outdoor,60,144.96609,-37.80385,"{'lon': 144.96609, 'lat': -37.80385}"
2021,255,101593,101593,Lincoln Hotel 91-95 Cardigan Street CARLTON VIC 3053,Carlton,Lincoln Hotel 91 Cardigan Street CARLTON VIC 3053,Hotel Lincoln,4520,"Pubs, Taverns and Bars",Seats - Outdoor,32,144.96451,-37.80449,"{'lon': 144.96451, 'lat': -37.80449}"
2021,256,108026,108026,210 Queensberry Street CARLTON VIC 3053,Carlton,210 Queensberry Street CARLTON VIC 3053,The Queensberry Pour House,4511,Cafes and Restaurants,Seats - Outdoor,2,144.96203,-37.80421,"{'lon': 144.96203, 'lat': -37.80421}"
2021,256,518847,518847,19-21 Lincoln Square South CARLTON VIC 3053,Carlton,19-21 Lincoln Square South CARLTON VIC 3053,Kaprica,4511,Cafes and Restaurants,Seats - Indoor,60,144.96278,-37.80336,"{'lon': 144.96278, 'lat': -37.80336}"
2021,257,525989,525989,163 Pelham Street CARLTON VIC 3053,Carlton,163 Pelham Street CARLTON VIC 3053,Momo Sushi Melbourne,4512,Takeaway Food Services,Seats - Indoor,10,144.96113,-37.8024,"{'lon': 144.96113, 'lat': -37.8024}"
2021,257,525991,525991,159 Pelham Street CARLTON VIC 3053,Carlton,Ground 159 Pelham Street CARLTON VIC 3053,Briscola Espresso,4511,Cafes and Restaurants,Seats - Outdoor,16,144.96126,-37.80241,"{'lon': 144.96126, 'lat': -37.80241}"
2021,257,525991,525991,159 Pelham Street CARLTON VIC 3053,Carlton,Ground 159 Pelham Street CARLTON VIC 3053,Briscola Espresso,4511,Cafes and Restaurants,Seats - Indoor,30,144.96126,-37.80241,"{'lon': 144.96126, 'lat': -37.80241}"
2021,259,101061,101061,106-114 Berkeley Street CARLTON VIC 3053,Carlton,106-114 Berkeley Street CARLTON VIC 3053,Seven Seeds,4511,Cafes and Restaurants,Seats - Indoor,90,144.95913,-37.80288,"{'lon': 144.95913, 'lat': -37.80288}"
2021,260,103262,103262,149-155 Berkeley Street MELBOURNE VIC 3000,Carlton,233 Pelham Street MELBOURNE VIC 3000,More Spicy More Tea Melbourne,4511,Cafes and Restaurants,Seats - Indoor,20,144.95825,-37.80219,"{'lon': 144.95825, 'lat': -37.80219}"
2021,260,103268,103268,660-674 Elizabeth Street MELBOURNE VIC 3000,Carlton,"Shop 1, Ground 660 Elizabeth Street MELBOURNE VIC 3000",Duke Pizza,4512,Takeaway Food Services,Seats - Indoor,8,144.9585,-37.80279,"{'lon': 144.9585, 'lat': -37.80279}"
2021,260,103272,103272,642-644 Elizabeth Street MELBOURNE VIC 3000,Carlton,642-644 Elizabeth Street MELBOURNE VIC 3000,Arabesque,4511,Cafes and Restaurants,Seats - Outdoor,13,144.95861,-37.80329,"{'lon': 144.95861, 'lat': -37.80329}"
2021,260,103276,103276,Royal Artillery Hotel 614-616 Elizabeth Street MELBOURNE VIC 3000,Carlton,Royal Artillery Hotel 614-616 Elizabeth Street MELBOURNE VIC 3000,The Last Jar,4520,"Pubs, Taverns and Bars",Seats - Indoor,90,144.95891,-37.80388,"{'lon': 144.95891, 'lat': -37.80388}"
2021,262,107875,107875,261-263 Queensberry Street CARLTON VIC 3053,Carlton,Ground 261-263 Queensberry Street CARLTON VIC 3053,Flovie Florist Cafe,4511,Cafes and Restaurants,Seats - Indoor,40,144.95993,-37.80441,"{'lon': 144.95993, 'lat': -37.80441}"
2021,263,105527,105527,Journal - Uni Place 16-32 Leicester Street CARLTON VIC 3053,Carlton,28 Leicester Street CARLTON VIC 3053,A Cafe Called John,4511,Cafes and Restaurants,Seats - Indoor,64,144.96051,-37.8057,"{'lon': 144.96051, 'lat': -37.8057}"
2021,264,661676,644815,551 Swanston Street CARLTON VIC 3053,Carlton,Gnd & Bmt 551 Swanston Street CARLTON VIC 3053,No 1 Delicious Hotpot And Bbq,4511,Cafes and Restaurants,Seats - Indoor,150,144.96252,-37.8057,"{'lon': 144.96252, 'lat': -37.8057}"
2021,265,101581,101581,55 Cardigan Street CARLTON VIC 3053,Carlton,Ground 55 Cardigan Street CARLTON VIC 3053,Mr Bello,4511,Cafes and Restaurants,Seats - Indoor,20,144.96428,-37.80544,"{'lon': 144.96428, 'lat': -37.80544}"
2021,265,107867,107867,139-155 Queensberry Street CARLTON VIC 3053,Carlton,151 Queensberry Street CARLTON VIC 3053,Tuantuan Chinese Brasserie,4511,Cafes and Restaurants,Seats - Indoor,60,144.96392,-37.80493,"{'lon': 144.96392, 'lat': -37.80493}"
2021,265,559514,559514,Arrow On Swanston 470-496 Swanston Street CARLTON VIC 3053,Carlton,"Unit 4, Ground 488 Swanston Street CARLTON VIC 3053",Yunique,4511,Cafes and Restaurants,Seats - Indoor,30,144.96354,-37.80558,"{'lon': 144.96354, 'lat': -37.80558}"
2021,265,559514,559514,Arrow On Swanston 470-496 Swanston Street CARLTON VIC 3053,Carlton,"Pt Bmt, Pt Gnd & Levels 1-10 478-488 Swanston Street CARLTON VIC 3053",Arrow On Swanston,4400,Accommodation,Seats - Indoor,100,144.96354,-37.80558,"{'lon': 144.96354, 'lat': -37.80558}"
2021,265,664021,664021,23-37 Cardigan Street CARLTON VIC 3053,Carlton,Part Level 4 23-27 Cardigan Street CARLTON VIC 3053,Coffee On Cardigan,4511,Cafes and Restaurants,Seats - Indoor,20,144.96396,-37.80593,"{'lon': 144.96396, 'lat': -37.80593}"
2021,266,109852,109852,72 Victoria Street CARLTON VIC 3053,Carlton,72 Victoria Street CARLTON VIC 3053,The Best Guilin Rice Noodles,4511,Cafes and Restaurants,Seats - Indoor,30,144.96542,-37.80671,"{'lon': 144.96542, 'lat': -37.80671}"
2021,267,106251,106251,66-88 Lygon Street CARLTON VIC 3053,Carlton,Part Ground 66 Lygon Street CARLTON VIC 3053,Lord Lygon Wine Shop,4520,"Pubs, Taverns and Bars",Seats - Indoor,20,144.96657,-37.8053,"{'lon': 144.96657, 'lat': -37.8053}"
2021,131,103978,111287,18-38 Siddeley Street DOCKLANDS VIC 3008,Docklands,"Shop 13-15, Ground 18-38 Siddeley Street DOCKLANDS VIC 3008",Man Mo @ Wtc,4511,Cafes and Restaurants,Seats - Indoor,110,144.95378,-37.82258,"{'lon': 144.95378, 'lat': -37.82258}"
2021,131,103978,111287,18-38 Siddeley Street DOCKLANDS VIC 3008,Docklands,"Shop 5, Ground 18-38 Siddeley Street DOCKLANDS VIC 3008",Yarra Dragon,4511,Cafes and Restaurants,Seats - Indoor,20,144.95378,-37.82258,"{'lon': 144.95378, 'lat': -37.82258}"
2021,131,103978,111287,18-38 Siddeley Street DOCKLANDS VIC 3008,Docklands,"Shop 8, Ground 18-38 Siddeley Street DOCKLANDS VIC 3008",Baraonda,4512,Takeaway Food Services,Seats - Indoor,12,144.95378,-37.82258,"{'lon': 144.95378, 'lat': -37.82258}"
2021,773,560261,560261,50-56 Lorimer Street DOCKLANDS VIC 3008,Docklands,50 River Esplanade DOCKLANDS VIC 3008,Hooks At The Yarra,4511,Cafes and Restaurants,Seats - Outdoor,60,144.94748,-37.82484,"{'lon': 144.94748, 'lat': -37.82484}"
2021,773,560266,560266,58-70 Lorimer Street DOCKLANDS VIC 3008,Docklands,66A River Esplanade DOCKLANDS VIC 3008,Sassone Cucina Italiana,4511,Cafes and Restaurants,Seats - Outdoor,36,144.94629,-37.82485,"{'lon': 144.94629, 'lat': -37.82485}"
2021,773,560266,560266,58-70 Lorimer Street DOCKLANDS VIC 3008,Docklands,66A River Esplanade DOCKLANDS VIC 3008,Sassone Cucina Italiana,4511,Cafes and Restaurants,Seats - Indoor,60,144.94629,-37.82485,"{'lon': 144.94629, 'lat': -37.82485}"
2021,773,577280,577280,72-82 Lorimer Street DOCKLANDS VIC 3008,Docklands,82 River Esplanade DOCKLANDS VIC 3008,18 Pence Lane Coffee & Food,4511,Cafes and Restaurants,Seats - Indoor,20,144.94497,-37.82471,"{'lon': 144.94497, 'lat': -37.82471}"
2021,773,579363,579363,Yarra Point Apartments 1-13 Point Park Crescent DOCKLANDS VIC 3008,Docklands,2 South Wharf Drive DOCKLANDS VIC 3008,Pizze Societe,4511,Cafes and Restaurants,Seats - Indoor,34,144.94122,-37.82356,"{'lon': 144.94122, 'lat': -37.82356}"
2021,773,579363,579363,Yarra Point Apartments 1-13 Point Park Crescent DOCKLANDS VIC 3008,Docklands,4 South Wharf Drive DOCKLANDS VIC 3008,Urban Hub,4110,Supermarket and Grocery Stores,Seats - Outdoor,4,144.94122,-37.82356,"{'lon': 144.94122, 'lat': -37.82356}"
2021,773,579363,579363,Yarra Point Apartments 1-13 Point Park Crescent DOCKLANDS VIC 3008,Docklands,2 South Wharf Drive DOCKLANDS VIC 3008,Pizze Societe,4511,Cafes and Restaurants,Seats - Outdoor,66,144.94122,-37.82356,"{'lon': 144.94122, 'lat': -37.82356}"
2021,773,627016,627016,73-91 South Wharf Drive DOCKLANDS VIC 3008,Docklands,196 River Esplanade DOCKLANDS VIC 3008,Anchor Eatery,4512,Takeaway Food Services,Seats - Outdoor,7,144.93592,-37.82238,"{'lon': 144.93592, 'lat': -37.82238}"
2021,773,579362,665148,84-90 Lorimer Street DOCKLANDS VIC 3008,Docklands,96 River Esplanade DOCKLANDS VIC 3008,Corniche,4511,Cafes and Restaurants,Seats - Indoor,100,144.9432,-37.82431,"{'lon': 144.9432, 'lat': -37.82431}"
2021,773,579362,665148,84-90 Lorimer Street DOCKLANDS VIC 3008,Docklands,92 River Esplanade DOCKLANDS VIC 3008,Mad Duck Cafe,4511,Cafes and Restaurants,Seats - Outdoor,30,144.9432,-37.82431,"{'lon': 144.9432, 'lat': -37.82431}"
2021,773,611696,665148,92-102 Lorimer Street DOCKLANDS VIC 3008,Docklands,Part 108 River Esplanade DOCKLANDS VIC 3008,The Espressonist,4511,Cafes and Restaurants,Seats - Indoor,90,144.9432,-37.82431,"{'lon': 144.9432, 'lat': -37.82431}"
2021,1101,108845,108845,Grand Central Apartments 33-71 Spencer Street DOCKLANDS VIC 3008,Docklands,Restaurant 33 Spencer Street DOCKLANDS VIC 3008,Gaylord Indian Restaurant,4511,Cafes and Restaurants,Seats - Outdoor,50,144.9542,-37.82018,"{'lon': 144.9542, 'lat': -37.82018}"
2021,1101,108973,108973,Southern Cross Station 85-161 Spencer Street DOCKLANDS VIC 3008,Docklands,"Shop 4-5, Ground 99 Spencer Street DOCKLANDS VIC 3008",Network Public Bar & Pizzeria,4520,"Pubs, Taverns and Bars",Seats - Indoor,155,144.95223,-37.81841,"{'lon': 144.95223, 'lat': -37.81841}"
2021,1101,108973,108973,Southern Cross Station 85-161 Spencer Street DOCKLANDS VIC 3008,Docklands,Part Level 3 699 Bourke Street DOCKLANDS VIC 3008,Gaslight Project,4511,Cafes and Restaurants,Seats - Indoor,30,144.95223,-37.81841,"{'lon': 144.95223, 'lat': -37.81841}"
2021,1101,108973,108973,Southern Cross Station 85-161 Spencer Street DOCKLANDS VIC 3008,Docklands,"Shop 14, Level 1 650 Collins Street DOCKLANDS VIC 3008",Hungry Jack's,4511,Cafes and Restaurants,Seats - Indoor,100,144.95223,-37.81841,"{'lon': 144.95223, 'lat': -37.81841}"
2021,1101,108973,108973,Southern Cross Station 85-161 Spencer Street DOCKLANDS VIC 3008,Docklands,"Shop 8A, Level 1 650 Collins Street DOCKLANDS VIC 3008",Spanish Doughnuts,4512,Takeaway Food Services,Seats - Indoor,20,144.95223,-37.81841,"{'lon': 144.95223, 'lat': -37.81841}"
2021,1101,108973,108973,Southern Cross Station 85-161 Spencer Street DOCKLANDS VIC 3008,Docklands,"Shop 9, Ground 99 Spencer Street DOCKLANDS VIC 3008",Red Rooster,4512,Takeaway Food Services,Seats - Indoor,36,144.95223,-37.81841,"{'lon': 144.95223, 'lat': -37.81841}"
2021,1101,108973,108973,Southern Cross Station 85-161 Spencer Street DOCKLANDS VIC 3008,Docklands,"Shop 2, Ground 650 Collins Street DOCKLANDS VIC 3008",Pie Face,4512,Takeaway Food Services,Seats - Indoor,17,144.95223,-37.81841,"{'lon': 144.95223, 'lat': -37.81841}"
2021,1101,110843,110843,Spencer Outlet Centre 163-261 Spencer Street DOCKLANDS VIC 3008,Docklands,"Shop 201-203, Level 1 201 Spencer Street DOCKLANDS VIC 3008",Starbucks,4511,Cafes and Restaurants,Seats - Indoor,53,144.95056,-37.81451,"{'lon': 144.95056, 'lat': -37.81451}"
2021,1101,110843,110843,Spencer Outlet Centre 163-261 Spencer Street DOCKLANDS VIC 3008,Docklands,"Shop 310, Ground 229 Spencer Street DOCKLANDS VIC 3008",Coffee Rush,4511,Cafes and Restaurants,Seats - Indoor,8,144.95056,-37.81451,"{'lon': 144.95056, 'lat': -37.81451}"
2021,1101,110843,110843,Spencer Outlet Centre 163-261 Spencer Street DOCKLANDS VIC 3008,Docklands,Ground 221 Spencer Street DOCKLANDS VIC 3008,Subway,4512,Takeaway Food Services,Seats - Outdoor,9,144.95056,-37.81451,"{'lon': 144.95056, 'lat': -37.81451}"
2021,1101,110843,110843,Spencer Outlet Centre 163-261 Spencer Street DOCKLANDS VIC 3008,Docklands,Shop Ground 163 Spencer Street DOCKLANDS VIC 3008,Degani @ Southern Cross Station,4511,Cafes and Restaurants,Seats - Indoor,45,144.95056,-37.81451,"{'lon': 144.95056, 'lat': -37.81451}"
2021,1101,110843,110843,Spencer Outlet Centre 163-261 Spencer Street DOCKLANDS VIC 3008,Docklands,"Kiosk 1, Level 1 201 Spencer Street DOCKLANDS VIC 3008",Quick fix,3493,Telecommunication Goods Wholesaling,Seats - Indoor,16,144.95056,-37.81451,"{'lon': 144.95056, 'lat': -37.81451}"
2021,1101,110843,110843,Spencer Outlet Centre 163-261 Spencer Street DOCKLANDS VIC 3008,Docklands,"Shop 310, Ground 229 Spencer Street DOCKLANDS VIC 3008",Coffee Rush,4511,Cafes and Restaurants,Seats - Outdoor,16,144.95056,-37.81451,"{'lon': 144.95056, 'lat': -37.81451}"
2021,1101,110843,110843,Spencer Outlet Centre 163-261 Spencer Street DOCKLANDS VIC 3008,Docklands,"Shop 208A, Level 1 201 Spencer Street DOCKLANDS VIC 3008",Schnitz,4511,Cafes and Restaurants,Seats - Indoor,50,144.95056,-37.81451,"{'lon': 144.95056, 'lat': -37.81451}"
2021,1101,110843,110843,Spencer Outlet Centre 163-261 Spencer Street DOCKLANDS VIC 3008,Docklands,"Shop 1, Level 1 201 Spencer Street DOCKLANDS VIC 3008",Potto,4511,Cafes and Restaurants,Seats - Indoor,22,144.95056,-37.81451,"{'lon': 144.95056, 'lat': -37.81451}"
2021,1101,110843,110843,Spencer Outlet Centre 163-261 Spencer Street DOCKLANDS VIC 3008,Docklands,"Shop 302, Ground 237-261 Spencer Street DOCKLANDS VIC 3008",Michel's Patisserie,1174,Bakery Product Manufacturing (Non-factory based),Seats - Outdoor,24,144.95056,-37.81451,"{'lon': 144.95056, 'lat': -37.81451}"
2021,1102,609314,609314,194-206 Harbour Esplanade DOCKLANDS VIC 3008,Docklands,"Unit 10, 198 Harbour Esplanade DOCKLANDS VIC 3008",Bito Beans,4511,Cafes and Restaurants,Seats - Indoor,17,144.94494,-37.81399,"{'lon': 144.94494, 'lat': -37.81399}"
2021,1102,609314,609314,194-206 Harbour Esplanade DOCKLANDS VIC 3008,Docklands,"Unit 3, 198 Harbour Esplanade DOCKLANDS VIC 3008",K C Tea Docklands,4512,Takeaway Food Services,Seats - Indoor,10,144.94494,-37.81399,"{'lon': 144.94494, 'lat': -37.81399}"
2021,1102,609314,609314,194-206 Harbour Esplanade DOCKLANDS VIC 3008,Docklands,"Unit 2, 198 Harbour Esplanade DOCKLANDS VIC 3008",Harbour Coffee House,4511,Cafes and Restaurants,Seats - Indoor,15,144.94494,-37.81399,"{'lon': 144.94494, 'lat': -37.81399}"
2021,1102,631646,631646,990 La Trobe Street DOCKLANDS VIC 3008,Docklands,"Shop 1, Level 1 990 La Trobe Street DOCKLANDS VIC 3008",Cafenatics,4511,Cafes and Restaurants,Seats - Indoor,100,144.94674,-37.81383,"{'lon': 144.94674, 'lat': -37.81383}"
2021,1103,669632,573400,673-675 La Trobe Street DOCKLANDS VIC 3008,Docklands,"Shop 101, 673 La Trobe Street DOCKLANDS VIC 3008",Chai 'N' Chilli,4511,Cafes and Restaurants,Seats - Outdoor,20,144.94749,-37.8149,"{'lon': 144.94749, 'lat': -37.8149}"
2021,1103,669632,573400,673-675 La Trobe Street DOCKLANDS VIC 3008,Docklands,"Shop 101, 673 La Trobe Street DOCKLANDS VIC 3008",Chai 'N' Chilli,4511,Cafes and Restaurants,Seats - Indoor,20,144.94749,-37.8149,"{'lon': 144.94749, 'lat': -37.8149}"
2021,1103,599505,573403,Victoria Point 744-770 Bourke Street DOCKLANDS VIC 3008,Docklands,Shop 10 Level 4 Concourse 744 Bourke Street DOCKLANDS VIC 3008,Pizzarium,4511,Cafes and Restaurants,Seats - Indoor,16,144.94735,-37.81813,"{'lon': 144.94735, 'lat': -37.81813}"
2021,1103,599505,573403,Victoria Point 744-770 Bourke Street DOCKLANDS VIC 3008,Docklands,Shop 11 Level 4 Concourse 744 Bourke Street DOCKLANDS VIC 3008,Souperman Cafe and Kitchen,4511,Cafes and Restaurants,Seats - Indoor,14,144.94735,-37.81813,"{'lon': 144.94735, 'lat': -37.81813}"
2021,1103,599505,573403,Victoria Point 744-770 Bourke Street DOCKLANDS VIC 3008,Docklands,768B Bourke Street DOCKLANDS VIC 3008,Eatful Dumplings,4512,Takeaway Food Services,Seats - Indoor,6,144.94735,-37.81813,"{'lon': 144.94735, 'lat': -37.81813}"
2021,1103,632898,632898,706-738 Bourke Street DOCKLANDS VIC 3008,Docklands,Shop 6 Concourse 720 Bourke Street DOCKLANDS VIC 3008,Hawkers Corner And Krabbys Crab Boil,4511,Cafes and Restaurants,Seats - Indoor,60,144.9491,-37.81791,"{'lon': 144.9491, 'lat': -37.81791}"
2021,1103,632898,632898,706-738 Bourke Street DOCKLANDS VIC 3008,Docklands,Shop 5 Concourse 720 Bourke Street DOCKLANDS VIC 3008,Focaccino,4511,Cafes and Restaurants,Seats - Indoor,60,144.9491,-37.81791,"{'lon': 144.9491, 'lat': -37.81791}"
2021,1103,632898,632898,706-738 Bourke Street DOCKLANDS VIC 3008,Docklands,Shop 3 Concourse 720 Bourke Street DOCKLANDS VIC 3008,Bruno's,4511,Cafes and Restaurants,Seats - Indoor,23,144.9491,-37.81791,"{'lon': 144.9491, 'lat': -37.81791}"
2021,1104,598658,576023,The Podium Building 2-24 Waterview Walk DOCKLANDS VIC 3008,Docklands,"Unit 3, 22 Waterview Walk DOCKLANDS VIC 3008",Kebab & Gozleme Cafe,4511,Cafes and Restaurants,Seats - Outdoor,30,144.94799,-37.81938,"{'lon': 144.94799, 'lat': -37.81938}"
2021,1104,598658,576023,The Podium Building 2-24 Waterview Walk DOCKLANDS VIC 3008,Docklands,2 Waterview Walk DOCKLANDS VIC 3008,Barlog,4511,Cafes and Restaurants,Seats - Outdoor,44,144.94799,-37.81938,"{'lon': 144.94799, 'lat': -37.81938}"
2021,1105,578096,578096,715-727 Bourke Street DOCKLANDS VIC 3008,Docklands,"Shop 5-6, Ground 717 Bourke Street DOCKLANDS VIC 3008",Cafe Saporo @ Docklands,4511,Cafes and Restaurants,Seats - Outdoor,26,144.95025,-37.81866,"{'lon': 144.95025, 'lat': -37.81866}"
2021,1105,578096,578096,715-727 Bourke Street DOCKLANDS VIC 3008,Docklands,Travelodge Docklands 66 Aurora Lane DOCKLANDS VIC 3008,Travelodge Hotel Melbourne Docklands,4400,Accommodation,Seats - Outdoor,70,144.95025,-37.81866,"{'lon': 144.95025, 'lat': -37.81866}"
2021,1105,605909,605909,Lantern 705-715 Collins Street DOCKLANDS VIC 3008,Docklands,Part Ground 707 Collins Street DOCKLANDS VIC 3008,Belluno Wine Bar,4511,Cafes and Restaurants,Seats - Outdoor,22,144.95114,-37.82088,"{'lon': 144.95114, 'lat': -37.82088}"
2021,1105,605910,605910,695-703 Collins Street DOCKLANDS VIC 3008,Docklands,"Shop 1-2, 699 Collins Street DOCKLANDS VIC 3008",Sergy Boy,4511,Cafes and Restaurants,Seats - Outdoor,58,144.95147,-37.8202,"{'lon': 144.95147, 'lat': -37.8202}"
2021,1105,605910,605910,695-703 Collins Street DOCKLANDS VIC 3008,Docklands,"Shop 4, 699 Collins Street DOCKLANDS VIC 3008",Home Vegan Bar / Home Juice and Salad Bar,4511,Cafes and Restaurants,Seats - Indoor,30,144.95147,-37.8202,"{'lon': 144.95147, 'lat': -37.8202}"
2021,1105,609487,609487,Lion 737-743 Bourke Street DOCKLANDS VIC 3008,Docklands,Part Ground 737 Bourke Street DOCKLANDS VIC 3008,The Hof Downtown,4511,Cafes and Restaurants,Seats - Outdoor,202,144.94907,-37.8192,"{'lon': 144.94907, 'lat': -37.8192}"
2021,1105,609487,609487,Lion 737-743 Bourke Street DOCKLANDS VIC 3008,Docklands,Part Ground 737 Bourke Street DOCKLANDS VIC 3008,Nine Elephants Thai Restaurant,4511,Cafes and Restaurants,Seats - Indoor,38,144.94907,-37.8192,"{'lon': 144.94907, 'lat': -37.8192}"
2021,1105,609488,609488,731-735 Bourke Street DOCKLANDS VIC 3008,Docklands,82 Village Street DOCKLANDS VIC 3008,Platform 28,4511,Cafes and Restaurants,Seats - Outdoor,90,144.94983,-37.81922,"{'lon': 144.94983, 'lat': -37.81922}"
2021,1105,628714,628714,733-747 Collins Street DOCKLANDS VIC 3008,Docklands,30 Batmans Hill Drive DOCKLANDS VIC 3008,Upstanding Citizens,4511,Cafes and Restaurants,Seats - Indoor,50,144.9495,-37.82093,"{'lon': 144.9495, 'lat': -37.82093}"
2021,1105,628714,628714,733-747 Collins Street DOCKLANDS VIC 3008,Docklands,"Tenancy 12, 747 Collins Street DOCKLANDS VIC 3008",Mr Collins,4511,Cafes and Restaurants,Seats - Outdoor,24,144.9495,-37.82093,"{'lon': 144.9495, 'lat': -37.82093}"
2021,1105,692621,692621,697 Collins Street DOCKLANDS VIC 3008,Docklands,"Shop 7, Ground 697 Collins Street DOCKLANDS VIC 3008",Royal Stacks,4511,Cafes and Restaurants,Seats - Outdoor,12,144.95177,-37.82079,"{'lon': 144.95177, 'lat': -37.82079}"
2021,1108,573414,573414,National@Docklands 788-812 Bourke Street DOCKLANDS VIC 3008,Docklands,"Shop 4-5, 800 Bourke Street DOCKLANDS VIC 3008",Rhumba's At Nab,4511,Cafes and Restaurants,Seats - Outdoor,28,144.94508,-37.81885,"{'lon': 144.94508, 'lat': -37.81885}"
2021,1108,573414,573414,National@Docklands 788-812 Bourke Street DOCKLANDS VIC 3008,Docklands,"Shop 4-5, 800 Bourke Street DOCKLANDS VIC 3008",Rhumba's At Nab,4511,Cafes and Restaurants,Seats - Indoor,38,144.94508,-37.81885,"{'lon': 144.94508, 'lat': -37.81885}"
2021,1108,573414,573414,National@Docklands 788-812 Bourke Street DOCKLANDS VIC 3008,Docklands,"Part Tenancy 3, 800 Bourke Street DOCKLANDS VIC 3008",In A Rush 800,4511,Cafes and Restaurants,Seats - Outdoor,30,144.94508,-37.81885,"{'lon': 144.94508, 'lat': -37.81885}"
2021,1108,573414,573414,National@Docklands 788-812 Bourke Street DOCKLANDS VIC 3008,Docklands,"Shop 9, 800 Bourke Street DOCKLANDS VIC 3008",Watermark Docklands,4520,"Pubs, Taverns and Bars",Seats - Outdoor,100,144.94508,-37.81885,"{'lon': 144.94508, 'lat': -37.81885}"
2021,1108,604118,604118,The Merchant 834-846 Bourke Street DOCKLANDS VIC 3008,Docklands,836 Bourke Street DOCKLANDS VIC 3008,Subway Vic Harbour,4512,Takeaway Food Services,Seats - Outdoor,10,144.94312,-37.81977,"{'lon': 144.94312, 'lat': -37.81977}"
2021,1108,604119,604119,Dock 5 41-55 Victoria Harbour Promenade DOCKLANDS VIC 3008,Docklands,107-109 Merchant Street DOCKLANDS VIC 3008,VinTam's Bakery,4511,Cafes and Restaurants,Seats - Outdoor,40,144.94292,-37.81935,"{'lon': 144.94292, 'lat': -37.81935}"
2021,1108,604124,604124,816-828 Bourke Street DOCKLANDS VIC 3008,Docklands,"Shop 1, 818 Bourke Street DOCKLANDS VIC 3008",Squires Loft Dockland,4511,Cafes and Restaurants,Seats - Outdoor,34,144.94397,-37.81927,"{'lon': 144.94397, 'lat': -37.81927}"
2021,1108,604124,604124,816-828 Bourke Street DOCKLANDS VIC 3008,Docklands,"Shop 9A, 818 Bourke Street DOCKLANDS VIC 3008",Blended Beard,4511,Cafes and Restaurants,Seats - Indoor,32,144.94397,-37.81927,"{'lon': 144.94397, 'lat': -37.81927}"
2021,1108,604124,604124,816-828 Bourke Street DOCKLANDS VIC 3008,Docklands,"Shop 9A, 818 Bourke Street DOCKLANDS VIC 3008",Blended Beard,4511,Cafes and Restaurants,Seats - Outdoor,19,144.94397,-37.81927,"{'lon': 144.94397, 'lat': -37.81927}"
2021,1108,604124,604124,816-828 Bourke Street DOCKLANDS VIC 3008,Docklands,"Shop 2, 818 Bourke Street DOCKLANDS VIC 3008",Southern China Style Cuisine,4511,Cafes and Restaurants,Seats - Indoor,30,144.94397,-37.81927,"{'lon': 144.94397, 'lat': -37.81927}"
2021,1108,604124,604124,816-828 Bourke Street DOCKLANDS VIC 3008,Docklands,"Shop 2, 818 Bourke Street DOCKLANDS VIC 3008",Southern China Style Cuisine,4511,Cafes and Restaurants,Seats - Outdoor,22,144.94397,-37.81927,"{'lon': 144.94397, 'lat': -37.81927}"
2021,1108,609480,609480,829-843 Bourke Street DOCKLANDS VIC 3008,Docklands,"Kiosk 1, 67 Merchant Street DOCKLANDS VIC 3008",Shinsei Fish And Sushi,4511,Cafes and Restaurants,Seats - Indoor,52,144.94346,-37.82045,"{'lon': 144.94346, 'lat': -37.82045}"
